"","destination_id","Destination_name","destination_type_id","destination_latitude","destination_longitude","Continent","Business_Budget","Business_Business","Business_Conferences","Business_Port","Business_Resorts","Business_University"
"1",8152,"Aarhus (and vicinity), Denmark",464,56.15309,10.205722,"Europe",0.084919022,0.084146428,0.06640288,0.066660121,0.06397231,0.06397231
"2",8710,"Albany (and vicinity), Georgia, United States of America",464,31.617903,-84.2226,"North America",0.066673019,0.095898336,0.064657527,0.064657527,0.064657527,0.072413265
"3",9485,"Akureyri, Iceland",557,65.72356,-18.10845,"Europe",0.064390792,0.066713672,0.064390792,0.064390792,0.064390792,0.065701659
"4",10043,"Athens (and vicinity), Georgia, United States of America",464,33.95772,-83.388577,"North America",0.075542162,0.08981302,0.0685824,0.062859997,0.062859997,0.103655794
"5",10105,"Al Hoceima, Morocco",557,35.24044,-3.929738,"Africa",0.066520319,0.069122452,0.066520319,0.066520319,0.066520319,0.066520319
"6",10198,"Anderson, Indiana, United States of America",557,40.09165,-85.65928,"North America",0.065438923,0.076873994,0.060241387,0.060241387,0.060241387,0.080770342
"7",11190,"Alpine (and vicinity), Texas, United States of America",464,30.364678,-103.639926,"North America",0.070995578,0.067139884,0.062400936,0.062400936,0.062400936,0.095068828
"8",11376,"Alamogordo, New Mexico, United States of America",557,32.73735,-106.0033,"North America",0.074047774,0.070112891,0.062820641,0.062820641,0.062820641,0.062820641
"9",12988,"Armidale, New South Wales, Australia",557,-30.52389,151.6555,"Australia",0.07720166,0.08006516,0.066308381,0.066308381,0.066308381,0.066308381
"10",13484,"Astoria, Oregon, United States of America",557,46.12418,-123.6769,"North America",0.081859031,0.085419549,0.056799519,0.094051124,0.056799519,0.056799519
"11",13980,"Appleton - Lake Winnebago (and vicinity), Wisconsin, United States of America",464,44.26222,-88.46827,"North America",0.080692774,0.082416098,0.061690877,0.059030696,0.059030696,0.076506088
"12",14011,"Watertown, South Dakota, United States of America",557,44.93607,-97.09045,"North America",0.061732883,0.0669898,0.061703365,0.061703365,0.061703365,0.061703365
"13",14166,"Abu Dhabi, United Arab Emirates",557,24.45503,54.50751,"Asia",0.071657737,0.096246172,0.074326465,0.061444212,0.056954803,0.056954803
"14",14569,"Avignon, France",774,43.94932,4.816989,"Europe",0.06661933,0.074546995,0.062187787,0.062187787,0.062187787,0.062639055
"15",14755,"Anguilla (all), Anguilla",464,18.180819,-63.134483,"South America",0.060247411,0.062049985,0.05844795,0.0585018,0.05844795,0.066504124
"16",15034,"Antalya, Turkey",557,36.89298,30.77626,"Europe",0.08038101,0.068460776,0.057397778,0.079608284,0.072104383,0.057397778
"17",15499,"Baotou, China",557,41.60901,110.2638,"Asia",0.065861819,0.083354531,0.065861819,0.065861819,0.065861819,0.065861819
"18",15902,"Bacolod, Philippines",557,10.6775,122.952,"Asia",0.079175324,0.072639585,0.060725836,0.065035913,0.060725836,0.060725836
"19",16801,"Bethel, Alaska, United States of America",557,60.79359,-161.8039,"North America",0.066326205,0.066326205,0.066326205,0.066326205,0.066326205,0.066326205
"20",16987,"Bradford, Pennsylvania, United States of America",557,41.91562,-78.76539,"North America",0.077200095,0.0669237,0.063526095,0.063526095,0.063526095,0.085000293
"21",18568,"Bujumbura, Burundi",557,-3.390973,29.3582,"Africa",0.062011075,0.074418979,0.062011075,0.062011075,0.062011075,0.071440826
"22",18847,"Bangkok, Thailand",557,13.7704,100.6211,"Asia",0.090645857,0.103259653,0.051594212,0.051620917,0.051154703,0.060649947
"23",21296,"Barquisimeto, Venezuela",557,10.03041,-69.31138,"South America",0.060240964,0.180722892,0.060240964,0.060240964,0.060240964,0.060240964
"24",21327,"Bern, Switzerland",557,46.9477,7.40662,"Europe",0.085483102,0.083061471,0.062305518,0.062305518,0.062305518,0.06521234
"25",22319,"Buenos Aires, Argentina",557,-34.61037,-58.44113,"South America",0.065301067,0.091584552,0.055465757,0.064141824,0.055465757,0.055465757
"26",23373,"Dibba, Oman",557,25.65178,56.21976,"Asia",0.0658809,0.067395822,0.0658809,0.0658809,0.0658809,0.0658809
"27",23590,"Bozeman (and vicinity), Montana, United States of America",464,45.69789,-111.04859,"North America",0.08182652,0.090287493,0.063799167,0.062189167,0.062189167,0.076686087
"28",23683,"Brazzaville, Republic of the Congo",557,-4.237149,15.29222,"Africa",0.066913093,0.069908002,0.066913093,0.066913093,0.066913093,0.066913093
"29",23776,"Cascavel (Parana), Brazil",557,-24.95574,-53.43666,"South America",0.065889955,0.073611963,0.065889955,0.065889955,0.065889955,0.065889955
"30",24954,"Crescent City, California, United States of America",557,41.77528,-124.0064,"North America",0.094308853,0.07475999,0.060957266,0.072668382,0.060957266,0.060957266
"31",25574,"Cologne, Germany",557,50.94614,6.973173,"Europe",0.075419786,0.102075318,0.062468039,0.061380132,0.061380132,0.061834754
"32",26194,"Chipata, Zambia",557,-13.63118,32.63906,"Africa",0.066970688,0.070023191,0.066970688,0.066970688,0.066970688,0.066970688
"33",26814,"College Station (and vicinity), Texas, United States of America",464,30.62921,-96.31858,"North America",0.116336779,0.089518994,0.067380872,0.059151672,0.059151672,0.190225832
"34",26969,"Charlotte, North Carolina, United States of America",557,35.22723,-80.8362,"North America",0.104213455,0.153789107,0.059793142,0.053086155,0.052584262,0.098235163
"35",27217,"Columbus, Ohio, United States of America",557,39.98415,-82.98585,"North America",0.089505428,0.114394803,0.069959042,0.05863078,0.057070333,0.076650455
"36",27310,"Club Makokola, Mangochi, Malawi",557,-14.30099,35.11935,"Africa",0.066727253,0.068205449,0.066727253,0.066727253,0.066727253,0.066727253
"37",27341,"Clermont, Queensland, Australia",557,-22.7198,147.4383,"Australia",0.064516129,0.064516129,0.064516129,0.064516129,0.064516129,0.064516129
"38",27837,"Coeur d'Alene, Idaho, United States of America",557,47.64194,-116.7035,"North America",0.112511975,0.098453586,0.063995773,0.058928887,0.058928887,0.058928887
"39",28240,"Copiapo, Chile",557,-27.3642,-70.33157,"South America",0.066563052,0.066563052,0.066563052,0.066563052,0.066563052,0.066563052
"40",28953,"Chengdu, China",557,30.69975,103.8605,"Asia",0.085632071,0.093152695,0.059798921,0.059798921,0.059798921,0.059798921
"41",28984,"Cucuta, Colombia",557,7.907297,-72.50908,"South America",0.069893415,0.069796638,0.064992795,0.064992795,0.064992795,0.064992795
"42",29046,"Culiacan (and vicinity), Sinaloa, Mexico",464,24.813196,-107.401922,"South America",0.067023481,0.087079587,0.062611813,0.066868322,0.062611813,0.062611813
"43",29108,"Cancun, Quintana Roo, Mexico",557,21.12304,-86.88591,"South America",0.073378261,0.057265614,0.046864435,0.046480921,0.138927907,0.051042658
"44",30286,"Dhaka, Bangladesh",557,23.78061,90.40796,"Asia",0.061376673,0.085537711,0.061376673,0.083881103,0.061376673,0.070228209
"45",30782,"Dodge City, Kansas, United States of America",557,37.74656,-100.0187,"North America",0.080302189,0.07878169,0.060493106,0.060493106,0.060493106,0.064586595
"46",31216,"Durango, Durango, Mexico",557,24.03852,-104.6613,"South America",0.062073191,0.072957617,0.062073191,0.062073191,0.062073191,0.062073191
"47",31402,"Dijon, France",557,47.3233,5.039531,"Europe",0.065987192,0.071063565,0.062359682,0.062359682,0.062359682,0.062359682
"48",31960,"Geilo, Hol, Norway",557,60.53467,8.206244,"Europe",0.066428107,0.071426108,0.066428107,0.066428107,0.066428107,0.066428107
"49",32053,"Da Lat, Vietnam",557,11.92321,108.4671,"Asia",0.093204176,0.076302271,0.059927463,0.059927463,0.059927463,0.081346514
"50",32456,"Denizli, Turkey",557,37.87642,29.14919,"Europe",0.063930936,0.068672856,0.062170976,0.062170976,0.062170976,0.062170976
"51",33386,"Durban, South Africa",557,-29.84922,30.99178,"Africa",0.067262267,0.083753577,0.068138823,0.076587621,0.059101673,0.059101673
"52",33944,"Kampala, Uganda",557,0.30793,32.57166,"Africa",0.074444167,0.077248005,0.062106504,0.060487022,0.060487022,0.060487022
"53",34223,"Edinburgh, Scotland, United Kingdom",557,55.94121,-3.224316,"Europe",0.08016465,0.101869248,0.052356319,0.056971168,0.049545082,0.06376643
"54",35122,"El Paso (and vicinity), Texas, United States of America",464,31.78105,-106.404565,"North America",0.078554567,0.099755515,0.059637526,0.059270037,0.059237483,0.062332557
"55",36331,"El Salvador, Chile",557,-26.14895,-69.62051,"South America",0.072903272,0.057188432,0.057188432,0.069351419,0.057188432,0.057188432
"56",36703,"New Bedford, Massachusetts, United States of America",557,41.66583,-70.93975,"North America",0.066494403,0.073002022,0.062924307,0.097521323,0.062924307,0.062924307
"57",37044,"Fajardo, Puerto Rico",557,18.32608,-65.65771,"South America",0.065940196,0.064259341,0.049269712,0.054363909,0.050425857,0.047190227
"58",37168,"Fresno, California, United States of America",557,36.70835,-119.8372,"North America",0.089953051,0.130515512,0.06228881,0.057807305,0.057807305,0.083119377
"59",37881,"Flagstaff, Arizona, United States of America",557,35.32666,-111.5108,"North America",0.118465373,0.089946509,0.056949146,0.054016062,0.054016062,0.10091412
"60",38718,"Freeport, Grand Bahama Island, Bahamas",557,26.54691,-78.62624,"South America",0.058581774,0.078058947,0.051296612,0.091978863,0.093384301,0.05424358
"61",39896,"Great Bend (and vicinity), Kansas, United States of America",464,38.36187,-98.783956,"North America",0.064751636,0.094827212,0.062099464,0.062099464,0.062099464,0.070830739
"62",41384,"Grand Junction (and vicinity), Colorado, United States of America",464,39.112646,-108.54066,"North America",0.124122432,0.096100062,0.059019831,0.056663382,0.056157853,0.075142993
"63",42810,"George, South Africa",557,-33.98348,22.4279,"Africa",0.065349279,0.071672676,0.065349279,0.065349279,0.065349279,0.065349279
"64",43399,"Gunnison, Colorado, United States of America",557,38.48177,-107.0868,"North America",0.066364436,0.070017386,0.063904389,0.063904389,0.063904389,0.068373811
"65",46065,"Hluhluwe, South Africa",557,-27.91931,32.21917,"Africa",0.066161025,0.067854792,0.066161025,0.066161025,0.066161025,0.066161025
"66",46902,"Princeville, Hawaii, United States of America",557,22.20893,-159.4733,"North America",0.06909848,0.073506392,0.057890646,0.057890646,0.057890646,0.057890646
"67",47088,"Harlingen, Texas, United States of America",557,26.18563,-97.72042,"North America",0.063629298,0.079710535,0.059626892,0.06329829,0.059626892,0.059626892
"68",47863,"Honningsvag, Nordkapp, Norway",557,70.98721,25.98217,"Europe",0.066757269,0.069560745,0.066757269,0.084880783,0.066757269,0.066757269
"69",47925,"Havre, Montana, United States of America",557,48.37663,-109.6558,"North America",0.077154269,0.063548806,0.060831661,0.060831661,0.060831661,0.077154269
"70",48514,"Idaho Falls (and vicinity), Idaho, United States of America",464,43.497752,-112.04716,"North America",0.08656474,0.088479002,0.057120463,0.056311031,0.055664862,0.056634389
"71",50467,"Iquitos (and vicinity), Peru",464,-3.752397,-73.246713,"South America",0.063336367,0.062538519,0.057048754,0.086526932,0.057833006,0.057048754
"72",50653,"Kirksville, Missouri, United States of America",557,40.15751,-92.59195,"North America",0.079209056,0.071885012,0.062640597,0.062640597,0.062640597,0.129294586
"73",51056,"Hilo, Hawaii, United States of America",557,19.71103,-155.2187,"North America",0.087955593,0.06486307,0.049688077,0.061988351,0.049688077,0.052213433
"74",51180,"Ivalo, Finland",557,68.65356,27.54374,"Europe",0.066047809,0.066047809,0.066047809,0.066047809,0.066047809,0.066047809
"75",51242,"Ironwood (and vicinity), Michigan, United States of America",464,46.46336,-90.17084,"North America",0.065559932,0.074223976,0.065559932,0.065559932,0.065559932,0.065559932
"76",53629,"Kilimanjaro, Moshi, Tanzania",557,-3.128317,37.33981,"Africa",0.065578425,0.071330841,0.065578425,0.065578425,0.065578425,0.065578425
"77",53660,"Jerusalem, Israel",557,31.77991,35.20602,"Europe",0.06252075,0.07131707,0.057780699,0.06231587,0.057458074,0.067638885
"78",53877,"Syros Island, Greece",464,37.42341,24.91609,"Europe",0.065371783,0.066723044,0.065371783,0.082414777,0.065371783,0.065371783
"79",53908,"Santorini Island, Greece",464,36.419936,25.430659,"Europe",0.066603222,0.058039036,0.05578608,0.079173824,0.055841708,0.05578608
"80",53939,"Astypalaia Island, Greece",464,36.55911,26.31314,"Europe",0.065988578,0.068058972,0.065988578,0.065988578,0.065988578,0.065988578
"81",54652,"Kalbarri, Western Australia, Australia",557,-27.69008,114.201,"Australia",0.065846732,0.065846732,0.065846732,0.065846732,0.065846732,0.065846732
"82",55179,"Kendari, Indonesia",557,-3.985,122.549,"Asia",0.066769625,0.072472505,0.066769625,0.066769625,0.066769625,0.066769625
"83",56264,"Nanchang, China",557,28.65184,116.0101,"Asia",0.065779813,0.08366268,0.065779813,0.065779813,0.065779813,0.065779813
"84",56481,"Niigata, Japan",557,37.84869,139.0167,"Asia",0.065965861,0.073001508,0.065965861,0.069691559,0.065965861,0.069691559
"85",57969,"Kostroma, Russia",557,57.78633,40.95428,"Europe",0.065850658,0.082771132,0.065850658,0.065850658,0.065850658,0.065850658
"86",58000,"Khamis Mushait, Saudi Arabia",557,18.29017,42.72308,"Asia",0.066970688,0.070023191,0.066970688,0.066970688,0.066970688,0.066970688
"87",58341,"Kununurra, Western Australia, Australia",557,-15.56053,128.8505,"Australia",0.063715412,0.067071867,0.063715412,0.063715412,0.063715412,0.063715412
"88",59426,"Krasnodar, Russia",557,45.06319,38.97216,"Europe",0.06497982,0.092115728,0.06497982,0.06497982,0.06497982,0.06497982
"89",59736,"Kassel, Germany",557,51.31094,9.459151,"Europe",0.064282359,0.073450175,0.064282359,0.064282359,0.064282359,0.064282359
"90",60356,"Katowice, Poland",557,50.23679,19.01677,"Europe",0.072484977,0.098845291,0.064657026,0.064657026,0.064657026,0.064657026
"91",62433,"Lawton, Oklahoma, United States of America",557,34.65826,-98.43703,"North America",0.074505457,0.076240212,0.06180355,0.06180355,0.06180355,0.067134449
"92",62557,"Lubbock, Texas, United States of America",557,33.59001,-101.8626,"North America",0.081411833,0.099960754,0.065055106,0.061196067,0.061196067,0.104742852
"93",64231,"Lahore, Pakistan",557,31.52982,74.35329,"Asia",0.06393429,0.066827251,0.073958717,0.06393429,0.06393429,0.06393429
"94",65905,"Liverpool, England, United Kingdom",557,53.45375,-2.936515,"Europe",0.086535209,0.085340514,0.062806312,0.068682508,0.054137885,0.057149076
"95",65998,"Luang Prabang, Laos",557,19.87801,102.1461,"Asia",0.067116658,0.068720057,0.059541535,0.059541535,0.059541535,0.059541535
"96",66432,"La Serena (and vicinity), Chile",464,-29.930496,-71.274738,"South America",0.066313313,0.069594512,0.066313313,0.066313313,0.066313313,0.066313313
"97",67114,"Lusaka, Zambia",557,-15.40669,28.33163,"Africa",0.065640469,0.108487367,0.061219003,0.061219003,0.061219003,0.061219003
"98",67734,"Luxor, Egypt",557,25.68963,32.61804,"Africa",0.06992674,0.076683017,0.059840109,0.066548977,0.059840109,0.059840109
"99",67796,"Luoyang, China",557,34.28349,111.9959,"Asia",0.078042477,0.081492582,0.065924341,0.065924341,0.065924341,0.065924341
"100",69346,"Machala, Ecuador",557,-3.249661,-79.95928,"South America",0.066652995,0.066652995,0.066652995,0.066652995,0.066652995,0.066652995
"101",69439,"Macon (and vicinity), Georgia, United States of America",464,32.875856,-83.6892,"North America",0.082958417,0.097788481,0.064337735,0.06334653,0.06334653,0.069103043
"102",69532,"Montlucon, France",557,46.33879,2.603488,"Europe",0.06668242,0.06668242,0.06668242,0.06668242,0.06668242,0.06668242
"103",70741,"Mount Gambier, South Australia, Australia",557,-37.83,140.7895,"Australia",0.104866206,0.090295232,0.063568267,0.063568267,0.063568267,0.063568267
"104",71206,"Manhattan (and vicinity), Kansas, United States of America",464,39.18027,-96.563237,"North America",0.084814536,0.086217601,0.064963209,0.064532266,0.064532266,0.084746306
"105",71485,"Milan, Italy",557,45.46833,9.173051,"Europe",0.070206826,0.10679397,0.055221509,0.05419629,0.054152876,0.066525754
"106",72198,"Milwaukee, Wisconsin, United States of America",557,43.06527,-87.95989,"North America",0.081300886,0.133362319,0.061656083,0.07266862,0.05175624,0.09151238
"107",72601,"Manokwari, Indonesia",557,-0.861885,134.079,"Asia",0.0625,0.125,0.0625,0.0625,0.0625,0.0625
"108",72911,"Morelia (and vicinity), Michoacan, Mexico",464,19.702885,-101.193266,"South America",0.072658738,0.077504073,0.062910847,0.062910847,0.062910847,0.062910847
"109",73035,"Monroe (and vicinity), Louisiana, United States of America",464,32.502362,-92.08289,"North America",0.072389135,0.08527574,0.061737847,0.061737847,0.061737847,0.066830313
"110",75298,"Missoula, Montana, United States of America",557,46.92574,-114.003,"North America",0.064879708,0.077044676,0.058835796,0.056439253,0.056439253,0.078772265
"111",76104,"Maun, Botswana",557,-19.98787,23.42274,"Africa",0.065198172,0.071005372,0.065198172,0.065198172,0.065198172,0.065198172
"112",76135,"Munich, Germany",557,48.15316,11.54726,"Europe",0.074015569,0.095624197,0.055382479,0.054625597,0.054625597,0.054848398
"113",77344,"Myrtle Beach, South Carolina, United States of America",557,33.72546,-78.89613,"North America",0.084252743,0.073623567,0.051762513,0.050986785,0.050856647,0.05577563
"114",77995,"Nagpur, India",557,21.1245,79.0875,"Asia",0.065781367,0.086776001,0.065781367,0.065781367,0.065781367,0.065781367
"115",78150,"Naples, Italy",557,40.85086,14.23781,"Europe",0.067917515,0.083150077,0.062703007,0.082545996,0.059871996,0.061833833
"116",79669,"Nanjing (prefecture), China",464,32.043892,118.778867,"Asia",0.06591078,0.099812948,0.064461561,0.064461561,0.064461561,0.064461561
"117",79855,"Nuevo Laredo, Tamaulipas, Mexico",557,27.44953,-99.54123,"South America",0.06917858,0.083950658,0.062637782,0.067343477,0.062637782,0.062637782
"118",79917,"Norfolk Island (all)",464,-29.041054,167.959123,"Australia",0.064016876,0.067712367,0.064016876,0.064016876,0.064016876,0.064016876
"119",80196,"Nan, Thailand",557,18.79328,100.7743,"Asia",0.065368705,0.065368705,0.065368705,0.065368705,0.065368705,0.065368705
"120",80258,"Nosara, Costa Rica",557,9.960187,-85.67142,"South America",0.066453004,0.070025622,0.062688085,0.062688085,0.062688085,0.062688085
"121",80475,"Novokuznetsk, Russia",557,53.79415,87.18195,"Europe",0.0669371,0.0669371,0.0669371,0.0669371,0.0669371,0.0669371
"122",80785,"Nakhon Si Thammarat, Thailand",557,8.449618,99.93372,"Asia",0.06562902,0.06562902,0.06562902,0.06562902,0.06562902,0.06562902
"123",81560,"Nyaung-U, Myanmar",557,21.19927,94.91461,"Asia",0.064679018,0.067498699,0.064679018,0.064679018,0.064679018,0.064679018
"124",81684,"Oaxaca, Oaxaca, Mexico",557,17.06267,-96.71957,"South America",0.067850927,0.071861204,0.0603483,0.0603483,0.0603483,0.0603483
"125",81839,"Ocho Rios, Jamaica",557,18.41611,-77.11572,"South America",0.056836145,0.055930049,0.048640409,0.05080046,0.132518764,0.050027403
"126",81963,"Oak Harbor, Washington, United States of America",557,48.31589,-122.6376,"North America",0.061753003,0.063564434,0.061753003,0.105900473,0.061753003,0.061753003
"127",82893,"Omaha (and vicinity), Nebraska, United States of America",464,41.25235,-96.02186,"North America",0.078608907,0.091058588,0.058254578,0.056197422,0.055861869,0.081559053
"128",83482,"Norfolk, Virginia, United States of America",557,36.90712,-76.2547,"North America",0.09217759,0.101902106,0.063345449,0.07598479,0.061042807,0.068381693
"129",83792,"Oshkosh, Wisconsin, United States of America",557,44.00908,-88.58203,"North America",0.091528695,0.071760244,0.060748365,0.059500837,0.059500837,0.081619028
"130",84505,"Oviedo (and vicinity), Spain",464,43.363059,-5.85306,"Europe",0.06509042,0.076570803,0.066460827,0.06509042,0.06509042,0.065717854
"131",85001,"Puebla (and vicinity), Puebla, Mexico",464,19.044319,-98.2201,"South America",0.066345622,0.08988252,0.064551053,0.064489865,0.064489865,0.064489865
"132",85404,"Pucallpa, Peru",557,-8.361413,-74.57972,"South America",0.062111801,0.124223603,0.062111801,0.062111801,0.062111801,0.062111801
"133",86334,"Ponta Grossa, Brazil",557,-25.13716,-50.06645,"South America",0.066752652,0.075256053,0.066752652,0.066752652,0.066752652,0.066752652
"134",86365,"Port Harcourt, Nigeria",557,4.817473,7.03522,"Africa",0.066485696,0.075006305,0.066485696,0.074910892,0.066485696,0.066485696
"135",87698,"Pemba Island, Tanzania",557,-5.176836,39.75418,"Africa",0.066643658,0.072522553,0.066643658,0.066643658,0.066643658,0.066643658
"136",88008,"Pamplona (and vicinity), Spain",464,42.81396,-1.645061,"Europe",0.066381121,0.079076766,0.064588086,0.064588086,0.064588086,0.065868978
"137",88070,"Phnom Penh, Cambodia",557,11.55329,104.8704,"Asia",0.086519368,0.101046744,0.059222782,0.059222782,0.059222782,0.059222782
"138",88907,"Puerto Princesa, Philippines",557,9.973703,118.821,"Asia",0.075550642,0.068487722,0.062871548,0.065470831,0.062871548,0.063981282
"139",89279,"Pretoria, South Africa",557,-25.7472,28.24784,"Africa",0.064615502,0.095245823,0.064615502,0.064615502,0.064615502,0.064615502
"140",92689,"Yangon, Myanmar",557,16.8687,96.18923,"Asia",0.07427534,0.069970058,0.06128479,0.066711165,0.06128479,0.06128479
"141",92782,"Rhodes Island, Greece",464,36.40009,28.187528,"Europe",0.067295421,0.061808923,0.058500351,0.079170155,0.0637034,0.058500351
"142",93433,"Rimini, Italy",557,44.04332,12.53376,"Europe",0.064108533,0.072813159,0.063654843,0.063654843,0.063654843,0.063654843
"143",93774,"Rochester, New York, United States of America",557,43.17537,-77.64826,"North America",0.066824242,0.11193864,0.060465042,0.070717496,0.05612956,0.11960957
"144",93991,"Rostov-on-Don, Russia",557,47.23912,39.67801,"Europe",0.065822947,0.092489613,0.065822947,0.065822947,0.065822947,0.065822947
"145",95324,"San Salvador, El Salvador",557,13.64538,-89.17981,"South America",0.062103563,0.118103623,0.062103563,0.062103563,0.062103563,0.062103563
"146",95789,"San Luis Obispo, California, United States of America",557,35.26423,-120.7014,"North America",0.076497815,0.082915397,0.055806061,0.055778885,0.054786686,0.108745762
"147",97742,"Shenyang, China",557,41.96069,123.1161,"Asia",0.06682171,0.084571181,0.062489505,0.062489505,0.062489505,0.062489505
"148",97959,"Sheridan (and vicinity), Wyoming, United States of America",464,44.80386,-106.93957,"North America",0.065556139,0.071219094,0.06013446,0.06013446,0.06013446,0.06013446
"149",99292,"Salta (and vicinity), Argentina",464,-24.788232,-65.409095,"South America",0.06627983,0.072404918,0.065790605,0.065790605,0.065790605,0.065790605
"150",99323,"Salt Lake City, Utah, United States of America",557,40.7424,-111.8529,"North America",0.113684506,0.118154205,0.073486738,0.053100276,0.050690182,0.076536205
"151",99416,"Saranac Lake, New York, United States of America",557,44.34541,-74.25569,"North America",0.057530866,0.072358798,0.057530866,0.057530866,0.057530866,0.06463474
"152",100005,"Ile Sainte-Marie, Madagascar",557,-16.91427,49.89516,"Africa",0.051807153,0.051807153,0.051807153,0.051807153,0.051807153,0.051807153
"153",100656,"Sorong, Indonesia",557,-0.865999,131.3223,"Asia",0.064935065,0.12987013,0.064935065,0.064935065,0.064935065,0.064935065
"154",100904,"Saipan, Northern Mariana Islands",464,15.214391,145.71739,"Australia",0.080728381,0.075460079,0.0647267,0.0647267,0.0647267,0.0647267
"155",101028,"Split, Croatia",557,43.51387,16.50192,"Europe",0.061766903,0.061843819,0.056762156,0.090758854,0.056578067,0.056578067
"156",101245,"Semarang, Indonesia",557,-7.01115,110.3905,"Asia",0.068053492,0.096754301,0.062757659,0.068053492,0.062757659,0.062757659
"157",102485,"Suva, Fiji",557,-18.12069,178.4536,"Australia",0.066318935,0.101020856,0.064342925,0.064342925,0.064342925,0.064342925
"158",103694,"Sydney, New South Wales, Australia",557,-33.867,151.2108,"Australia",0.11162398,0.100107938,0.058920575,0.301406011,0.046168267,0.046482897
"159",104655,"Tartu, Estonia",557,58.37468,26.72553,"Europe",0.065127124,0.074000737,0.065127124,0.065127124,0.065127124,0.084270846
"160",106670,"Taif, Saudi Arabia",557,21.39462,40.51751,"Asia",0.066387699,0.072336539,0.066387699,0.066387699,0.066387699,0.066387699
"161",106732,"Tijuana (and vicinity), Baja California Norte, Mexico",464,32.519478,-117.012133,"South America",0.07540812,0.101517902,0.064478319,0.058423686,0.058423686,0.064478333
"162",107290,"Tok, Alaska, United States of America",557,63.32952,-142.996,"North America",0.066395101,0.066395101,0.066395101,0.066395101,0.066395101,0.066395101
"163",107755,"Tlemcen, Algeria",557,34.87365,-1.302338,"Africa",0.062893082,0.125786163,0.062893082,0.062893082,0.062893082,0.062893082
"164",108189,"Sao Tome Island, Sao Tome and Principe",557,0.220876,6.619432,"Africa",0.065897565,0.068485557,0.065897565,0.065897565,0.065897565,0.065897565
"165",108623,"Antananarivo, Madagascar",557,-18.90039,47.51458,"Africa",0.064023188,0.068169034,0.061968003,0.061968003,0.061968003,0.066138247
"166",108685,"Tioman Island, Malaysia",557,2.789838,104.1765,"Asia",0.070972429,0.058215027,0.057483177,0.057483177,0.057483177,0.057483177
"167",110049,"Timisoara, Romania",557,45.73935,21.28229,"Europe",0.062070076,0.081771656,0.062070076,0.062070076,0.062070076,0.07391012
"168",110266,"Tottori, Japan",557,35.43969,134.1547,"Asia",0.064805356,0.070506188,0.064805356,0.064805356,0.064805356,0.087927922
"169",110793,"Tunis, Tunisia",557,36.80352,10.17164,"Africa",0.072594697,0.102495929,0.063874251,0.063874251,0.063874251,0.063874251
"170",110824,"Taupo, New Zealand",557,-38.69542,176.0834,"Australia",0.072148343,0.064541238,0.057780816,0.058000752,0.057780816,0.083895897
"171",111258,"Tawau, Malaysia",557,4.332791,117.9588,"Asia",0.066506436,0.072018355,0.066506436,0.066506436,0.066506436,0.066506436
"172",111878,"Columbus (and vicinity), Mississippi, United States of America",464,33.516849,-88.427,"North America",0.061975352,0.083979297,0.064189439,0.061373559,0.061373559,0.083202899
"173",114606,"Valdez, Alaska, United States of America",557,61.1273,-146.3214,"North America",0.05921159,0.064492359,0.05921159,0.127636774,0.05921159,0.05921159
"174",114978,"Spanish Town, Virgin Gorda, British Virgin Islands",557,18.46826,-64.41988,"South America",0.062872644,0.065240628,0.062872644,0.062872644,0.062872644,0.062872644
"175",116125,"Vientiane, Laos",557,17.98119,102.609,"Asia",0.060804541,0.072038329,0.060804541,0.060804541,0.060804541,0.060804541
"176",116404,"Sao Vicente, Cape Verde",557,16.8436,-24.9848,"Africa",0.065555904,0.070317809,0.065555904,0.076630076,0.065555904,0.065555904
"177",118512,"Worland (and vicinity), Wyoming, United States of America",464,44.02078,-107.95581,"North America",0.069553289,0.06573539,0.063903721,0.063903721,0.063903721,0.063903721
"178",121643,"Deer Lake, Newfoundland and Labrador, Canada",557,49.16787,-57.45962,"North America",0.06416735,0.06561056,0.06416735,0.06416735,0.06416735,0.06416735
"179",122976,"Hamilton (and vicinity), Ontario, Canada",464,43.25761,-79.8723,"North America",0.091226062,0.106534036,0.065342553,0.061007942,0.060632692,0.073976533
"180",123255,"Yichang, China",557,30.74599,111.1464,"Asia",0.069198894,0.126644295,0.064135926,0.064135926,0.064135926,0.064135926
"181",123472,"Kamloops (and vicinity), British Columbia, Canada",464,50.67158,-120.352141,"North America",0.087900057,0.079888412,0.061269939,0.059235909,0.063237242,0.071140651
"182",123627,"Yankton, South Dakota, United States of America",557,42.91335,-97.45016,"North America",0.06669347,0.06428054,0.062374326,0.062374326,0.062374326,0.062374326
"183",124402,"Yanbu, Saudi Arabia",557,24.39513,37.97019,"Asia",0.072243057,0.116661867,0.065188383,0.065188383,0.065188383,0.065188383
"184",124681,"Yantai, China",557,37.43834,120.8135,"Asia",0.065995963,0.085974166,0.065380821,0.065380821,0.065380821,0.065380821
"185",124929,"Prince Albert, Saskatchewan, Canada",557,53.20098,-105.7214,"North America",0.064759763,0.074796339,0.064771901,0.064759763,0.064759763,0.064759763
"186",125797,"Thunder Bay, Ontario, Canada",557,48.42465,-89.29774,"North America",0.06813801,0.096123567,0.069811948,0.076492352,0.057763348,0.070090061
"187",126138,"Red Lake, Ontario, Canada",557,51.05653,-93.72749,"North America",0.066545753,0.069637899,0.066545753,0.066545753,0.066545753,0.066545753
"188",127223,"Bonaventure, Quebec, Canada",557,48.0562,-65.45954,"North America",0.065769711,0.067353493,0.065769711,0.065769711,0.065769711,0.065769711
"189",127781,"Medicine Hat (and vicinity), Alberta, Canada",464,50.00836,-110.66437,"North America",0.078930979,0.082713293,0.062213985,0.060454765,0.060454765,0.060454765
"190",127998,"Prince George, British Columbia, Canada",557,53.92054,-122.7537,"North America",0.069670147,0.094425892,0.057338471,0.057338471,0.057338471,0.076170362
"191",128029,"Terrace, British Columbia, Canada",557,54.50383,-128.6105,"North America",0.065561201,0.069516376,0.065561201,0.065561201,0.065561201,0.065561201
"192",128060,"London (and vicinity), Ontario, Canada",464,42.98282,-81.23937,"North America",0.08637797,0.116393255,0.066836528,0.059740672,0.059740672,0.092921637
"193",128277,"Fort Nelson, British Columbia, Canada",557,58.80358,-122.7029,"North America",0.064897472,0.09567237,0.064897472,0.064897472,0.064897472,0.064897472
"194",128649,"Yellowknife, Northwest Territories, Canada",557,62.45193,-114.3839,"North America",0.060840192,0.109784564,0.060840192,0.060840192,0.060840192,0.060840192
"195",129765,"Manzanillo (and vicinity), Colima, Mexico",464,19.105027,-104.3481,"South America",0.061554561,0.07293307,0.05922666,0.08590414,0.068484093,0.059234772
"196",130974,"Gzira, Malta",557,35.9043,14.49682,"Europe",0.095925907,0.067354335,0.061885196,0.118260344,0.061885196,0.061885196
"197",131470,"Bad Brueckenau, Germany",557,50.30716,9.774504,"Europe",0.066066232,0.06727367,0.066066232,0.066066232,0.066066232,0.066066232
"198",132493,"Ambleside, England, United Kingdom",557,54.42879,-3.027857,"Europe",0.062432029,0.064473645,0.061563115,0.061563115,0.061563115,0.061563115
"199",133361,"Vitznau, Switzerland",557,47.01501,8.488104,"Europe",0.065946409,0.067389619,0.065946409,0.065946409,0.065946409,0.065946409
"200",133454,"Puerto de Pollensa, Spain",557,39.89069,3.083159,"Europe",0.067152348,0.059923431,0.058534992,0.089007851,0.083147154,0.058534992
"201",133516,"Nervi, Genoa, Italy",774,44.38771,9.024632,"Europe",0.066321602,0.077706281,0.066321602,0.076442296,0.066321602,0.066321602
"202",133981,"Ullapool, Scotland, United Kingdom",557,57.99128,-5.178801,"Europe",0.071899427,0.066554892,0.065120172,0.066723561,0.065120172,0.065120172
"203",136337,"Peguera, Spain",774,39.53883,2.454468,"Europe",0.064179701,0.065798523,0.064179701,0.064179701,0.068625034,0.064179701
"204",137701,"Schliersee, Germany",557,47.68731,11.87512,"Europe",0.065395923,0.06740335,0.065395923,0.065395923,0.065395923,0.065395923
"205",138786,"Rize, Turkey",557,40.95048,40.56238,"Europe",0.066963968,0.068497946,0.066963968,0.066963968,0.066963968,0.066963968
"206",138972,"Meyrin, Switzerland",557,46.23224,6.079154,"Europe",0.079264004,0.125364086,0.062434492,0.062329811,0.062329811,0.064562412
"207",139003,"Montreux, Switzerland",557,46.44989,6.937726,"Europe",0.068348881,0.069254506,0.05597429,0.060000408,0.05597429,0.05597429
"208",139778,"Meudon, France",557,48.80414,2.227381,"Europe",0.066792329,0.071096489,0.066792329,0.066792329,0.066792329,0.066792329
"209",139995,"Mardin, Turkey",557,37.28683,40.79008,"Europe",0.066848256,0.06978684,0.066848256,0.066848256,0.066848256,0.066848256
"210",141483,"Barnstaple, England, United Kingdom",557,51.1021,-3.987432,"Europe",0.070573115,0.077243661,0.065271927,0.065271927,0.065271927,0.065271927
"211",141855,"Bishop's Stortford, England, United Kingdom",557,51.87519,0.204597,"Europe",0.088728578,0.118033559,0.063380816,0.058326089,0.058326089,0.058326089
"212",142010,"Borehamwood, England, United Kingdom",557,51.65841,-0.280497,"Europe",0.083305954,0.111219676,0.061699409,0.061699409,0.061699409,0.061699409
"213",142134,"Bradford-on-Avon, England, United Kingdom",557,51.36045,-2.262277,"Europe",0.064872223,0.067643842,0.064872223,0.064872223,0.064872223,0.064872223
"214",142568,"Cannock, England, United Kingdom",557,52.70093,-2.010667,"Europe",0.102374956,0.131077126,0.063612909,0.063612909,0.063612909,0.063612909
"215",142723,"Chichester, England, United Kingdom",557,50.84674,-0.796783,"Europe",0.063166287,0.075553699,0.063166287,0.063166287,0.063166287,0.063166287
"216",143374,"Dartmouth, England, United Kingdom",557,50.34466,-3.596709,"Europe",0.064949346,0.064949346,0.064949346,0.074243714,0.064949346,0.064949346
"217",143467,"Dorking, England, United Kingdom",557,51.18887,-0.350964,"Europe",0.063855412,0.075203934,0.089593508,0.063855412,0.063855412,0.063855412
"218",144428,"Hemel Hempstead, England, United Kingdom",557,51.75485,-0.484531,"Europe",0.082377997,0.079234527,0.063127805,0.063127805,0.063127805,0.063127805
"219",144924,"Alanya, Turkey",557,36.5825,32.13989,"Europe",0.065062849,0.068529689,0.065062849,0.06900074,0.07423978,0.065062849
"220",145048,"Letchworth, England, United Kingdom",557,51.97821,-0.22531,"Europe",0.065096903,0.066602473,0.065096903,0.065096903,0.065096903,0.065096903
"221",146257,"Oeiras, Portugal",557,38.71061,-9.276484,"Europe",0.070022205,0.105118347,0.063500567,0.063500567,0.063500567,0.063500567
"222",146908,"Autun, France",557,46.94528,4.311471,"Europe",0.06558013,0.068449571,0.06558013,0.06558013,0.06558013,0.06558013
"223",148148,"Chantilly, France",557,49.1762,2.481431,"Europe",0.066392618,0.067879828,0.066392618,0.066392618,0.066392618,0.066392618
"224",148954,"Fontainebleau, France",557,48.40533,2.679514,"Europe",0.065258655,0.080226796,0.065258655,0.065258655,0.065258655,0.065258655
"225",149605,"Ivry-sur-Seine, France",557,48.81237,2.38765,"Europe",0.081225452,0.072398107,0.065876652,0.069691652,0.065876652,0.065876652
"226",150008,"Slagelse, Denmark",557,55.40724,11.35737,"Europe",0.066928965,0.069832566,0.066928965,0.066928965,0.066928965,0.066928965
"227",151000,"Wantage, England, United Kingdom",557,51.58177,-1.429713,"Europe",0.064562349,0.07798945,0.064562349,0.064562349,0.064562349,0.064562349
"228",151434,"Riva del Garda, Italy",557,45.88571,10.82472,"Europe",0.064498397,0.067104732,0.064085307,0.064085307,0.064085307,0.064085307
"229",152581,"Abano Terme, Italy",557,45.3586,11.79293,"Europe",0.065854197,0.070270941,0.065854197,0.065854197,0.065854197,0.065854197
"230",153108,"Colle di Val d'Elsa, Italy",557,43.39223,11.0944,"Europe",0.065766478,0.068446725,0.065766478,0.065766478,0.065766478,0.065766478
"231",153387,"Akcakoca, Turkey",557,41.06403,31.15653,"Europe",0.066514028,0.069453475,0.066514028,0.066514028,0.066514028,0.066514028
"232",156084,"Ouranoupoli, Aristotelis, Greece",557,40.33961,23.97368,"Europe",0.065678741,0.069388284,0.065678741,0.065678741,0.065678741,0.065678741
"233",156549,"Halle an der Saale, Germany",557,51.47994,11.96808,"Europe",0.065319017,0.071654145,0.065319017,0.065319017,0.065319017,0.065319017
"234",156859,"Willingen, Germany",557,51.29128,8.655777,"Europe",0.066196608,0.073031878,0.066196608,0.066196608,0.066196608,0.066196608
"235",157231,"Zamosc, Poland",557,50.74199,23.27403,"Europe",0.066255449,0.069011409,0.066255449,0.066255449,0.066255449,0.066255449
"236",158378,"Steyr, Austria",557,48.0539,14.42135,"Europe",0.065986561,0.078259511,0.065986561,0.065986561,0.065986561,0.065986561
"237",160610,"Mechelen, Belgium",557,51.02876,4.450268,"Europe",0.065453959,0.074860439,0.065453959,0.065453959,0.065453959,0.065453959
"238",161292,"Nafplio, Greece",557,37.53139,22.91196,"Europe",0.063869837,0.066763833,0.059730542,0.112257236,0.059730542,0.059730542
"239",162036,"Viernheim, Germany",557,49.55862,8.56394,"Europe",0.066824099,0.06832967,0.066824099,0.066824099,0.066824099,0.066824099
"240",162997,"Wetzlar, Germany",557,50.56643,8.513532,"Europe",0.065969348,0.068872948,0.065969348,0.065969348,0.065969348,0.065969348
"241",164268,"Bussum, Netherlands",557,52.27033,5.165211,"Europe",0.065255194,0.082419124,0.065255194,0.065255194,0.065255194,0.065255194
"242",165415,"Nunspeet, Netherlands",557,52.37743,5.788511,"Europe",0.066578467,0.074559313,0.066578467,0.066578467,0.066578467,0.066578467
"243",166314,"Zaandam, Netherlands",557,52.44573,4.825437,"Europe",0.106866072,0.07192879,0.052619623,0.052619623,0.052619623,0.052619623
"244",166810,"Bad Duerkheim, Germany",557,49.45379,8.086325,"Europe",0.066616992,0.070239306,0.066616992,0.066616992,0.066616992,0.066616992
"245",166872,"Baden-Baden, Germany",557,48.75116,8.230616,"Europe",0.062972832,0.074384626,0.062443459,0.062443459,0.062443459,0.062443459
"246",167151,"Bad Salzuflen, Germany",557,52.0721,8.761214,"Europe",0.066610039,0.070343239,0.066610039,0.066610039,0.066610039,0.066610039
"247",167554,"Castrop-Rauxel, Germany",557,51.5704,7.314671,"Europe",0.066855145,0.072367064,0.066855145,0.066855145,0.066855145,0.066855145
"248",167864,"Ettlingen, Germany",557,48.92601,8.406245,"Europe",0.065931442,0.079646446,0.065931442,0.065931442,0.065931442,0.065931442
"249",168081,"Haan, Germany",557,51.20826,7.010632,"Europe",0.066769625,0.069621065,0.066769625,0.066769625,0.066769625,0.066769625
"250",168236,"Heidenheim an der Brenz, Germany",557,48.70977,10.18839,"Europe",0.065887985,0.079108024,0.065887985,0.065887985,0.065887985,0.065887985
"251",168484,"Karlsruhe, Germany",557,49.01182,8.411253,"Europe",0.064447451,0.077571958,0.063219212,0.063219212,0.063219212,0.063219212
"252",168546,"Kelsterbach, Germany",557,50.04915,8.518537,"Europe",0.097096525,0.132981488,0.05831637,0.05831637,0.05831637,0.05831637
"253",168639,"Constance, Germany",557,47.70446,9.159194,"Europe",0.059738461,0.065247243,0.059738461,0.08697259,0.059738461,0.060227556
"254",168794,"Landshut, Germany",557,48.54453,12.15986,"Europe",0.065689667,0.07561041,0.065689667,0.065689667,0.065689667,0.065689667
"255",169042,"Navan, Ireland",557,53.62726,-6.663124,"Europe",0.066643587,0.069530006,0.066643587,0.066643587,0.066643587,0.066643587
"256",169166,"Torquay, England, United Kingdom",557,50.47842,-3.518155,"Europe",0.066778103,0.068981155,0.062573796,0.083526495,0.062573796,0.062573796
"257",169352,"Walsall, England, United Kingdom",557,52.61361,-1.96242,"Europe",0.094756511,0.104791141,0.064838001,0.062411284,0.062411284,0.062411284
"258",170282,"York, England, United Kingdom",557,54.05331,-1.003395,"Europe",0.080570601,0.077868214,0.059513873,0.056981429,0.056981429,0.062146409
"259",170840,"Zug, Switzerland",557,47.15329,8.5179,"Europe",0.066029836,0.068739863,0.066029836,0.066029836,0.066029836,0.066029836
"260",171398,"Rambouillet, France",557,48.65314,1.826001,"Europe",0.06548756,0.068275016,0.06548756,0.06548756,0.06548756,0.06548756
"261",171553,"Rueil-Malmaison, France",557,48.86936,2.177571,"Europe",0.06684894,0.087343361,0.064710103,0.064710103,0.064710103,0.064710103
"262",171677,"Saint-Etienne-du-Rouvray, France",557,49.38165,1.090045,"Europe",0.085271804,0.073611962,0.065434054,0.065434054,0.065434054,0.065434054
"263",174281,"Chepstow, Wales, United Kingdom",557,51.66663,-2.716477,"Europe",0.067924073,0.065116129,0.058688705,0.063753545,0.058688705,0.058688705
"264",174870,"Marlborough, England, United Kingdom",557,51.39265,-1.686537,"Europe",0.082169763,0.074861209,0.065203282,0.065203282,0.065203282,0.065203282
"265",177226,"Leven, Scotland, United Kingdom",557,56.2148,-2.932882,"Europe",0.066741901,0.066741901,0.066741901,0.066741901,0.066741901,0.066741901
"266",177443,"Asolo, Italy",557,45.78898,11.90987,"Europe",0.066022247,0.067347804,0.066022247,0.066022247,0.066022247,0.066022247
"267",177505,"Monteriggioni, Italy",557,43.36734,11.22472,"Europe",0.065627228,0.067391978,0.065112516,0.065112516,0.065112516,0.065112516
"268",178745,"Pertuis, France",557,43.68776,5.52105,"Europe",0.066908971,0.068360771,0.066908971,0.066908971,0.066908971,0.066908971
"269",180419,"Rungis, France",557,48.74981,2.352521,"Europe",0.069293723,0.078247049,0.065275209,0.065275209,0.065275209,0.065275209
"270",180481,"Sisteron, France",557,44.20052,5.930851,"Europe",0.065522041,0.065522041,0.065522041,0.065522041,0.065522041,0.065522041
"271",180822,"Lech am Arlberg, Austria",557,47.20364,10.14321,"Europe",0.083517548,0.069731302,0.064995333,0.064995333,0.064995333,0.064995333
"272",181039,"Postojna, Slovenia",557,45.77762,14.21797,"Europe",0.066294975,0.069066593,0.066294975,0.066294975,0.066294975,0.066294975
"273",182341,"Beaugency, France",557,47.77863,1.638702,"Europe",0.066046338,0.066046338,0.066046338,0.066046338,0.066046338,0.066046338
"274",183922,"Hanalei, Hawaii, United States of America",557,22.16835,-159.5538,"North America",0.086137748,0.06131658,0.052965697,0.052965697,0.052965697,0.052965697
"275",184015,"Clifton, Texas, United States of America",557,31.8027,-97.50204,"North America",0.066973499,0.068469833,0.066973499,0.066973499,0.066973499,0.066973499
"276",184294,"Euless, Texas, United States of America",557,32.83784,-97.0953,"North America",0.076842519,0.090322339,0.069773377,0.063395187,0.063283959,0.064138294
"277",184387,"Alpharetta, Georgia, United States of America",557,34.07782,-84.26853,"North America",0.069503655,0.123064436,0.063392074,0.061040797,0.061040797,0.063240695
"278",184573,"Apex, North Carolina, United States of America",557,35.73669,-78.89914,"North America",0.064148615,0.075521792,0.064148615,0.064148615,0.064148615,0.064148615
"279",184821,"Alhambra, California, United States of America",557,34.08368,-118.1349,"North America",0.062826997,0.097597928,0.064842575,0.060613678,0.060613678,0.066706008
"280",185193,"Avon, Connecticut, United States of America",557,41.79118,-72.8515,"North America",0.071110754,0.09639701,0.078891065,0.063033914,0.054957074,0.086655188
"281",185503,"Alexandria, Virginia, United States of America",557,38.77512,-77.09776,"North America",0.09908557,0.123523846,0.068651927,0.068786111,0.057297291,0.05847417
"282",185751,"Roanoke, Alabama, United States of America",557,33.13647,-85.36655,"North America",0.067081786,0.067081786,0.067081786,0.067081786,0.067081786,0.067081786
"283",185844,"Union Gap, Washington, United States of America",557,46.55682,-120.4847,"North America",0.080493058,0.066849876,0.065380584,0.065380584,0.065380584,0.065380584
"284",186123,"Alliance, Ohio, United States of America",557,40.92064,-81.12838,"North America",0.063749763,0.085064743,0.060431359,0.060431359,0.060431359,0.067048224
"285",186247,"Hunt Valley, Maryland, United States of America",557,39.48763,-76.65751,"North America",0.066922514,0.081923164,0.079717806,0.070278069,0.06098348,0.06153726
"286",186278,"Arcata, California, United States of America",557,40.84788,-124.0455,"North America",0.126997923,0.077377887,0.060262838,0.062061664,0.060262838,0.108858323
"287",186340,"Barre, Vermont, United States of America",557,44.18678,-72.48295,"North America",0.099548497,0.083937606,0.061273539,0.061273539,0.061273539,0.080343068
"288",186991,"Ascona, Switzerland",557,46.1542,8.770367,"Europe",0.065068527,0.067737044,0.065068527,0.065068527,0.065068527,0.065068527
"289",187270,"Ada, Oklahoma, United States of America",557,34.80905,-96.7054,"North America",0.070587725,0.067694468,0.067681417,0.063356233,0.063356233,0.072451328
"290",187425,"Reynoldsburg, Ohio, United States of America",557,39.95684,-82.78187,"North America",0.089000431,0.081272934,0.06359865,0.06359865,0.06359865,0.06359865
"291",187642,"Durham, North Carolina, United States of America",557,35.99838,-78.88832,"North America",0.07297575,0.116380384,0.059720398,0.057225657,0.057225657,0.116145746
"292",188882,"Johnson City, Tennessee, United States of America",557,36.32822,-82.37295,"North America",0.085642167,0.113208639,0.064475816,0.061449303,0.061449303,0.087593623
"293",189409,"Richardson, Texas, United States of America",557,32.97092,-96.70976,"North America",0.089977491,0.111439833,0.062992434,0.060583274,0.060583274,0.076116461
"294",189657,"Richfield, Minnesota, United States of America",557,44.87646,-93.28311,"North America",0.077834889,0.091883184,0.062570123,0.060942457,0.060942457,0.06542973
"295",190091,"Angers, France",557,47.47172,-0.558217,"Europe",0.065002614,0.075047276,0.065002614,0.065002614,0.065002614,0.066753677
"296",191052,"Asbury Park, New Jersey, United States of America",557,40.24655,-74.05121,"North America",0.070193282,0.069388756,0.048764093,0.048764093,0.048764093,0.048764093
"297",191207,"Rock Island, Illinois, United States of America",557,41.49048,-90.56728,"North America",0.062727049,0.111039184,0.082595457,0.062727049,0.062727049,0.06391074
"298",191579,"Richmond Hill, Ontario, Canada",557,43.90246,-79.42629,"North America",0.089272068,0.087387984,0.067680076,0.06115007,0.06115007,0.06115007
"299",191672,"Seaside, Oregon, United States of America",557,45.89333,-123.6594,"North America",0.072711477,0.073885549,0.057278276,0.054977395,0.054977395,0.054977395
"300",192106,"Ahoskie, North Carolina, United States of America",557,36.29092,-76.98672,"North America",0.066285932,0.069132575,0.066285932,0.066285932,0.066285932,0.066285932
"301",192850,"Cameron Park, California, United States of America",557,38.66257,-120.9769,"North America",0.076847682,0.121237862,0.063102868,0.063102868,0.063102868,0.063102868
"302",192912,"Dyersburg, Tennessee, United States of America",557,36.03378,-89.3864,"North America",0.070751615,0.06975014,0.061968772,0.061968772,0.061968772,0.061968772
"303",193005,"Sulphur, Louisiana, United States of America",557,30.174,-93.43713,"North America",0.083150309,0.080189637,0.06529347,0.06529347,0.06529347,0.066819497
"304",193098,"Jennings, Louisiana, United States of America",557,30.22723,-92.65879,"North America",0.086153905,0.070944051,0.062041621,0.070816653,0.062041621,0.062041621
"305",193811,"Beachwood, Ohio, United States of America",557,41.46986,-81.51473,"North America",0.07146259,0.104837538,0.059673506,0.066185408,0.059325595,0.071123728
"306",193966,"Boynton Beach, Florida, United States of America",557,26.5241,-80.1354,"North America",0.110005245,0.10556508,0.057166981,0.065988046,0.057166981,0.057166981
"307",194245,"Artesia, California, United States of America",557,33.86887,-118.0812,"North America",0.070904761,0.081812612,0.06190017,0.073601482,0.06190017,0.073601482
"308",194431,"Wall, South Dakota, United States of America",557,44.1263,-102.1931,"North America",0.08270487,0.075679364,0.062156169,0.062156169,0.062156169,0.062156169
"309",194679,"Buffalo Grove, Illinois, United States of America",557,42.17241,-87.95922,"North America",0.098260625,0.10862495,0.056442395,0.056442395,0.056442395,0.072868483
"310",194803,"Bal Harbour, Florida, United States of America",557,25.89352,-80.1251,"North America",0.068172601,0.070501127,0.059713365,0.121613664,0.059713365,0.072788128
"311",195144,"Brandon, Florida, United States of America",774,27.92538,-82.29599,"North America",0.071276353,0.09045538,0.061480374,0.062592147,0.061480374,0.066194096
"312",195330,"Battle Mountain, Nevada, United States of America",557,40.63927,-116.936,"North America",0.066803708,0.074164052,0.062192333,0.080466548,0.062192333,0.067477559
"313",195764,"Altavista, Virginia, United States of America",557,37.14224,-79.23463,"North America",0.081171285,0.07763426,0.066046848,0.066046848,0.066046848,0.111492684
"314",195950,"Boca Raton, Florida, United States of America",557,26.37634,-80.15642,"North America",0.065798357,0.134673461,0.066024879,0.055771039,0.054541685,0.065997644
"315",196849,"Borger, Texas, United States of America",557,35.72013,-101.2459,"North America",0.066665505,0.069621898,0.066665505,0.066665505,0.066665505,0.066665505
"316",196880,"Bainbridge, Georgia, United States of America",557,30.87553,-84.61343,"North America",0.084139042,0.083992597,0.066022093,0.066022093,0.066022093,0.066022093
"317",197593,"Amite, Louisiana, United States of America",557,30.72189,-90.5127,"North America",0.06685308,0.069921035,0.06685308,0.06685308,0.06685308,0.06685308
"318",197624,"Vernon Hills, Illinois, United States of America",557,42.23375,-87.96045,"North America",0.061063771,0.095514162,0.078415975,0.061063771,0.061063771,0.080769846
"319",198864,"Barahona, Dominican Republic",557,18.14808,-71.12798,"South America",0.05967417,0.093706006,0.05967417,0.068990903,0.05967417,0.05967417
"320",199112,"Bairnsdale, Victoria, Australia",557,-37.83345,147.6226,"Australia",0.06502625,0.068648564,0.06502625,0.06502625,0.06502625,0.06502625
"321",199918,"Beverly, Massachusetts, United States of America",557,42.56709,-70.86149,"North America",0.078536035,0.108627329,0.094273342,0.062612144,0.057459698,0.157389557
"322",200259,"Blaine, Washington, United States of America",557,48.94085,-122.7575,"North America",0.061517403,0.064098443,0.061517403,0.061529497,0.061517403,0.061517403
"323",200383,"Runnemede, New Jersey, United States of America",557,39.8516,-75.07373,"North America",0.107921177,0.080185661,0.065467802,0.065467802,0.065467802,0.065467802
"324",200414,"Arden Hills, Minnesota, United States of America",557,45.06909,-93.16869,"North America",0.079262543,0.066744507,0.079830625,0.065170943,0.065170943,0.080405433
"325",200693,"Buffalo, Wyoming, United States of America",557,44.34811,-106.6991,"North America",0.07063596,0.077134917,0.064959512,0.064959512,0.064959512,0.064959512
"326",201437,"Cupertino, California, United States of America",557,37.31739,-122.0469,"North America",0.063572219,0.086578843,0.060905553,0.060905553,0.060905553,0.071837705
"327",201623,"Carol Stream, Illinois, United States of America",557,41.91017,-88.12588,"North America",0.059827823,0.092132216,0.059827823,0.059827823,0.059827823,0.066416707
"328",201809,"Chanhassen, Minnesota, United States of America",557,44.85732,-93.55159,"North America",0.062558743,0.066704735,0.062135555,0.062135555,0.062135555,0.062135555
"329",201995,"Hawthorn, Victoria, Australia",557,-37.82493,145.0319,"Australia",0.06579719,0.080299654,0.06579719,0.06579719,0.06579719,0.077160705
"330",202212,"Cairo, Georgia, United States of America",557,30.85784,-84.21776,"North America",0.067040642,0.067040642,0.067040642,0.067040642,0.067040642,0.067040642
"331",202522,"Seal Beach, California, United States of America",557,33.75314,-118.0731,"North America",0.086981625,0.076747104,0.059399055,0.065209991,0.057167082,0.057167083
"332",202553,"Cockeysville, Maryland, United States of America",557,39.48379,-76.63445,"North America",0.080140034,0.0893791,0.075769497,0.069552627,0.062045845,0.072533098
"333",202615,"Concord, Massachusetts, United States of America",557,42.46173,-71.36558,"North America",0.065135931,0.072821882,0.05802875,0.05802875,0.05802875,0.063995751
"334",203421,"Cadillac, Michigan, United States of America",557,44.24888,-85.52235,"North America",0.076279242,0.086119852,0.06240999,0.075265455,0.059011307,0.063545287
"335",203452,"Clayton, New Mexico, United States of America",557,36.44453,-103.171,"North America",0.067463056,0.074588851,0.060917825,0.060917825,0.060917825,0.064975254
"336",204816,"Salem, New Hampshire, United States of America",557,42.80185,-71.22688,"North America",0.121512246,0.090273751,0.063174496,0.063174496,0.063174496,0.064559564
"337",204971,"Cambridge, Maryland, United States of America",557,38.50895,-76.10942,"North America",0.063948761,0.071951676,0.069093209,0.062943914,0.062943914,0.062943914
"338",205188,"Chandler, Arizona, United States of America",557,33.26376,-111.8798,"North America",0.066118451,0.121313878,0.071362672,0.058439167,0.057832633,0.058142901
"339",205560,"Concordville, Glen Mills, Pennsylvania, United States of America",557,39.88451,-75.52946,"North America",0.063978396,0.10537197,0.063978396,0.063978396,0.063978396,0.075595597
"340",205839,"San Clemente, California, United States of America",557,33.43977,-117.6046,"North America",0.08667763,0.069085768,0.058410848,0.058410848,0.059193574,0.058410848
"341",206397,"Castroville, Texas, United States of America",557,29.36922,-98.89088,"North America",0.061889252,0.069173775,0.060203982,0.060203982,0.060203982,0.060203982
"342",206583,"Compton, California, United States of America",557,33.88794,-118.2251,"North America",0.152787712,0.111196825,0.057258917,0.057258917,0.057258917,0.057258917
"343",206676,"Sandy, Utah, United States of America",557,40.57285,-111.843,"North America",0.069040319,0.093569635,0.063886179,0.058514711,0.058514711,0.058514711
"344",207606,"Sauk Centre, Minnesota, United States of America",557,45.71896,-94.98953,"North America",0.066907229,0.069793648,0.066907229,0.066907229,0.066907229,0.066907229
"345",207637,"Sauk City, Wisconsin, United States of America",557,43.2591,-89.79315,"North America",0.066239141,0.066239141,0.066239141,0.066239141,0.066239141,0.066239141
"346",207947,"Coventry, England, United Kingdom",557,52.42225,-1.497423,"Europe",0.108893995,0.122031588,0.063535406,0.060681767,0.060681767,0.066520213
"347",208133,"Schiller Park, Illinois, United States of America",557,41.95794,-87.86935,"North America",0.150011424,0.090947918,0.065689972,0.055193849,0.052858978,0.067411657
"348",208536,"Kingsland, Georgia, United States of America",557,30.81319,-81.72533,"North America",0.098301931,0.07261925,0.060099538,0.081822133,0.060099538,0.077084342
"349",208722,"Blasdell, New York, United States of America",557,42.78923,-78.82969,"North America",0.072515433,0.069776115,0.066662163,0.066549247,0.066549247,0.066549247
"350",209032,"South Burlington, Vermont, United States of America",557,44.44792,-73.17109,"North America",0.080128315,0.09176469,0.060534606,0.054633936,0.054633936,0.142270735
"351",209931,"Boardman, Ohio, United States of America",557,41.02133,-80.67103,"North America",0.074979668,0.083911905,0.065849802,0.065849802,0.065849802,0.065849802
"352",210334,"Bonham, Texas, United States of America",557,33.57352,-96.17656,"North America",0.066889959,0.068453436,0.066889959,0.066889959,0.066889959,0.066889959
"353",210582,"Cathedral City, California, United States of America",557,33.81263,-116.4669,"North America",0.086788822,0.093592094,0.059946251,0.053781851,0.053781851,0.053781851
"354",210985,"Spanish Fork, Utah, United States of America",557,40.11001,-111.6869,"North America",0.059993887,0.069361272,0.059993887,0.068565978,0.059993887,0.059993887
"355",212194,"Bellflower, California, United States of America",557,33.8882,-118.1278,"North America",0.065706917,0.064723787,0.063686227,0.073204352,0.063686227,0.073204352
"356",213000,"Benton, Kentucky, United States of America",557,36.86388,-88.34666,"North America",0.066444866,0.067932076,0.066444866,0.066444866,0.066444866,0.066444866
"357",213186,"The Dalles, Oregon, United States of America",557,45.5509,-121.2014,"North America",0.071053841,0.075749357,0.060905122,0.060905122,0.060905122,0.060905122
"358",213434,"Siesta Key, Florida, United States of America",557,27.25559,-82.54183,"North America",0.062467754,0.052171328,0.050036497,0.054183951,0.050036497,0.050036497
"359",213961,"Bethany, Oklahoma, United States of America",557,35.51398,-97.64481,"North America",0.066197566,0.101805405,0.066197566,0.066197566,0.066197566,0.066197566
"360",214643,"Smithfield, North Carolina, United States of America",557,35.49154,-78.34975,"North America",0.064372939,0.07001354,0.061914669,0.061914669,0.061914669,0.071277286
"361",214984,"Smyrna, Georgia, United States of America",557,33.86687,-84.51571,"North America",0.070764688,0.111156032,0.062973976,0.06083919,0.06083919,0.065662899
"362",215232,"Somers Point, New Jersey, United States of America",557,39.31799,-74.60252,"North America",0.06553307,0.060506641,0.059142748,0.059142748,0.059142748,0.059142748
"363",215263,"Somerset, Massachusetts, United States of America",557,41.74812,-71.15576,"North America",0.075079159,0.069047477,0.065960104,0.065960104,0.065960104,0.065960104
"364",215852,"Clarion, Pennsylvania, United States of America",557,41.20227,-79.35746,"North America",0.078696504,0.06540432,0.060974345,0.060974345,0.060974345,0.100761793
"365",215976,"Burnet, Texas, United States of America",557,30.84944,-98.26849,"North America",0.064639562,0.066545777,0.064639562,0.064639562,0.064639562,0.064639562
"366",216348,"Englewood, New Jersey, United States of America",557,40.89187,-73.97392,"North America",0.087866677,0.110407223,0.059610466,0.059610466,0.059610466,0.064322087
"367",217402,"Camp Hill, Pennsylvania, United States of America",557,40.23445,-76.92978,"North America",0.066952825,0.089125795,0.07349052,0.059394146,0.059394146,0.059394146
"368",217805,"Brea, California, United States of America",557,33.92785,-117.8466,"North America",0.083101004,0.099291689,0.061459913,0.062326039,0.061459913,0.063544835
"369",218766,"Vail, Colorado, United States of America",557,39.63329,-106.3613,"North America",0.064668565,0.070951162,0.059963255,0.058454012,0.058454012,0.058454012
"370",219293,"St. Helens, Oregon, United States of America",557,45.87216,-122.8892,"North America",0.061065451,0.067619212,0.061065451,0.061065451,0.061065451,0.069251133
"371",219417,"Elkins, West Virginia, United States of America",557,38.94313,-79.82468,"North America",0.075396098,0.081058812,0.063138018,0.063138018,0.063138018,0.065426631
"372",219758,"Brooklawn, New Jersey, United States of America",557,39.87896,-75.12115,"North America",0.080893755,0.067575404,0.065879889,0.065879889,0.065879889,0.065879889
"373",220006,"Brooklyn Center, Minnesota, United States of America",557,45.06845,-93.31616,"North America",0.073212232,0.086962968,0.070758117,0.063510067,0.063510067,0.063610765
"374",220533,"Kerrville, Texas, United States of America",557,30.01967,-99.16576,"North America",0.077317398,0.068946214,0.061536011,0.059007907,0.059007907,0.059865901
"375",220719,"Brush, Colorado, United States of America",557,40.26353,-103.6204,"North America",0.068299787,0.071567455,0.066946807,0.066946807,0.066946807,0.066946807
"376",220874,"Espanola, New Mexico, United States of America",557,35.9852,-106.0753,"North America",0.073472705,0.071019739,0.06513959,0.06513959,0.06513959,0.06513959
"377",221556,"Newton, Kansas, United States of America",557,38.05249,-97.34319,"North America",0.065113723,0.081666393,0.061245494,0.061245494,0.061245494,0.069723549
"378",221649,"Burlingame, California, United States of America",557,37.56837,-122.3659,"North America",0.093815732,0.149707887,0.065570722,0.058064751,0.054680194,0.055355279
"379",221742,"Burlington, Ontario, Canada",557,43.35128,-79.81895,"North America",0.077779395,0.091971442,0.059025612,0.058687533,0.058687533,0.063248879
"380",221773,"Fenton, Missouri, United States of America",557,38.50109,-90.46148,"North America",0.074430325,0.085302765,0.06273813,0.06273813,0.06273813,0.072279584
"381",221835,"Heath, Ohio, United States of America",557,40.01086,-82.33305,"North America",0.0870645,0.07773467,0.065617977,0.065617977,0.065617977,0.078434914
"382",221928,"Fountain Valley, California, United States of America",557,33.71066,-117.9514,"North America",0.095020087,0.088636472,0.058778319,0.065691287,0.058778319,0.0677132
"383",222176,"Chapel Hill, North Carolina, United States of America",557,35.90017,-79.09583,"North America",0.096245946,0.096079345,0.069629247,0.060075934,0.060075934,0.153856759
"384",223199,"Checotah, Oklahoma, United States of America",557,35.46059,-95.5596,"North America",0.066861918,0.066839546,0.066839546,0.066839546,0.066839546,0.066839546
"385",223230,"Cheektowaga, New York, United States of America",557,42.9052,-78.76196,"North America",0.095520259,0.087227577,0.057452085,0.074656431,0.056022428,0.062080935
"386",224904,"Teaneck, New Jersey, United States of America",557,40.8904,-74.01118,"North America",0.065468992,0.115542252,0.066193198,0.093011027,0.058457268,0.060701252
"387",225152,"Temple Terrace, Florida, United States of America",557,28.04626,-82.3688,"North America",0.06948457,0.092896594,0.058875739,0.068520836,0.058875739,0.081281757
"388",225431,"Carpinteria, California, United States of America",557,34.39912,-119.5016,"North America",0.075770613,0.094663841,0.057239549,0.057239549,0.057239549,0.065298144
"389",225524,"Carrollton, Texas, United States of America",557,32.98912,-96.89689,"North America",0.082541058,0.067074947,0.062924645,0.062924645,0.062924645,0.072098642
"390",225958,"Thomasville, Alabama, United States of America",557,31.91467,-87.85874,"North America",0.066636018,0.099890999,0.066636018,0.066636018,0.066636018,0.066636018
"391",226144,"Casey, Illinois, United States of America",557,39.30371,-87.98599,"North America",0.066559599,0.068133163,0.066559599,0.066559599,0.066559599,0.066559599
"392",226237,"Fort Bragg, California, United States of America",557,39.46592,-123.7096,"North America",0.071426323,0.067347978,0.062307126,0.097684072,0.057562077,0.057562077
"393",226578,"Catskill, New York, United States of America",557,42.22443,-73.92678,"North America",0.062390655,0.063378212,0.062390655,0.062390655,0.062390655,0.069156031
"394",226857,"Celina, Ohio, United States of America",557,40.55317,-84.5967,"North America",0.066161646,0.089369193,0.066161646,0.066161646,0.066161646,0.066161646
"395",227384,"Sarvar, Hungary",557,47.27762,16.94949,"Europe",0.066153821,0.072860729,0.066153821,0.066153821,0.066153821,0.066153821
"396",227725,"Manteno, Illinois, United States of America",557,41.25028,-87.83646,"North America",0.073639328,0.078227862,0.065348623,0.065348623,0.065348623,0.106736677
"397",227849,"Marshfield, Missouri, United States of America",557,37.33759,-92.90931,"North America",0.066742664,0.068301238,0.066737761,0.066737761,0.066737761,0.070270633
"398",229244,"Waterloo, New York, United States of America",557,42.91164,-76.87981,"North America",0.081743552,0.07174417,0.058112537,0.058112537,0.058112537,0.059650754
"399",229430,"Terrigal, New South Wales, Australia",557,-33.44116,151.4295,"Australia",0.072464714,0.061728308,0.060326569,0.060326569,0.060326569,0.060326569
"400",230980,"General Santos, Philippines",557,6.067366,125.1369,"Asia",0.067030541,0.067030541,0.067030541,0.067030541,0.067030541,0.067030541
"401",231445,"Vestavia Hills, Birmingham, Alabama, United States of America",557,33.43745,-86.78185,"North America",0.12712149,0.132863541,0.065065434,0.058508261,0.058508261,0.064512049
"402",231538,"Clarksville, Arkansas, United States of America",557,35.58223,-93.46149,"North America",0.075764316,0.077952174,0.077987642,0.066680578,0.061201416,0.073039466
"403",232716,"Patras, Greece",557,38.24695,21.77899,"Europe",0.06750333,0.070467999,0.063505156,0.099328886,0.063505156,0.063505156
"404",232778,"Wadsworth, Ohio, United States of America",557,41.05757,-81.73856,"North America",0.093972034,0.087057167,0.080167795,0.062199564,0.062199564,0.06650857
"405",233212,"Wakefield, Massachusetts, United States of America",557,42.50292,-71.06488,"North America",0.113229846,0.091543553,0.061378923,0.056302271,0.056302271,0.061398654
"406",233429,"Zlin, Czech Republic",557,49.23342,17.66345,"Europe",0.066355807,0.066355807,0.066355807,0.066355807,0.066355807,0.066355807
"407",233491,"Gulf Shores, Alabama, United States of America",557,30.26182,-87.80714,"North America",0.112507173,0.069895999,0.056720078,0.056720078,0.056720078,0.059901307
"408",233615,"Guymon, Oklahoma, United States of America",557,36.75059,-101.514,"North America",0.065743512,0.088128509,0.083068159,0.061630745,0.061630745,0.061630745
"409",233646,"Wallingford, Connecticut, United States of America",557,41.45874,-72.80373,"North America",0.066323011,0.076595199,0.061924876,0.061924876,0.061924876,0.086566614
"410",233863,"Greenwood, Mississippi, United States of America",557,33.58601,-90.13999,"North America",0.063851845,0.067488954,0.063851845,0.073399895,0.063851845,0.063851845
"411",234452,"Westmont, Illinois, United States of America",557,41.79726,-87.97472,"North America",0.07186743,0.104646256,0.077307211,0.062903214,0.062903214,0.062903549
"412",234607,"Davidson, North Carolina, United States of America",557,35.48478,-80.79538,"North America",0.064096818,0.069771342,0.064096818,0.064096818,0.064096818,0.101146129
"413",235134,"Rosemont, Illinois, United States of America",557,41.98849,-87.87171,"North America",0.077327863,0.120497714,0.092856175,0.058878051,0.057742836,0.05990721
"414",235227,"Grinnell, Iowa, United States of America",557,41.73844,-92.71542,"North America",0.065257126,0.075592041,0.064322689,0.064322689,0.064322689,0.104331551
"415",235289,"Henderson, Nevada, United States of America",557,35.94925,-115.0565,"North America",0.10232382,0.099103039,0.059281771,0.052085783,0.053375646,0.052278771
"416",236281,"Harmarville, Pittsburgh, Pennsylvania, United States of America",557,40.53432,-79.84985,"North America",0.056984103,0.116338316,0.056984103,0.079028563,0.056984103,0.138382776
"417",236560,"South Yarmouth, Massachusetts, United States of America",557,41.67369,-70.19838,"North America",0.071842384,0.076875862,0.058278273,0.059303647,0.058466471,0.069240558
"418",236591,"Spring Lake, Michigan, United States of America",557,43.09056,-86.20271,"North America",0.062090905,0.097203955,0.062090905,0.063909198,0.062090905,0.062090905
"419",236901,"Williams, Arizona, United States of America",557,35.24066,-112.1785,"North America",0.091208289,0.069742611,0.056604472,0.056604472,0.056604472,0.057652702
"420",237893,"Hermiston, Oregon, United States of America",557,45.83311,-119.3549,"North America",0.071096688,0.073169722,0.065133421,0.065133421,0.065133421,0.065133421
"421",237924,"Natchez, Mississippi, United States of America",557,31.53966,-91.33309,"North America",0.065564684,0.081666086,0.060169437,0.064569969,0.059996779,0.059996779
"422",238048,"Koloa, Hawaii, United States of America",557,21.89147,-159.454,"North America",0.05809548,0.056570991,0.053336103,0.067260276,0.050709021,0.050898158
"423",238172,"Wentzville, Missouri, United States of America",557,38.81218,-90.86055,"North America",0.088618965,0.068997554,0.064851633,0.064851633,0.064851633,0.064851633
"424",238947,"Hollister, California, United States of America",557,36.85975,-121.2497,"North America",0.064818741,0.085988144,0.064818741,0.064818741,0.064818741,0.064818741
"425",239009,"Hamilton, Victoria, Australia",557,-37.74146,142.0267,"Australia",0.065396148,0.073076639,0.065396148,0.065396148,0.065396148,0.065396148
"426",239164,"Homosassa Springs, Homosassa, Florida, United States of America",557,28.80255,-82.57469,"North America",0.086171698,0.061463496,0.06042334,0.06042334,0.06042334,0.06042334
"427",240342,"Huntsville, Texas, United States of America",557,30.74274,-95.58113,"North America",0.067557696,0.10396116,0.062669965,0.062669965,0.062669965,0.08695781
"428",240776,"Hay on Wye, Wales, United Kingdom",557,52.05797,-3.175004,"Europe",0.080138978,0.065981864,0.064418386,0.064418386,0.064418386,0.064418386
"429",241520,"Yazoo City, Mississippi, United States of America",557,32.83157,-90.4976,"North America",0.065945177,0.06628286,0.061691935,0.078704904,0.061691935,0.061691935
"430",241613,"York, South Carolina, United States of America",557,34.98653,-81.21383,"North America",0.067092413,0.067092413,0.067092413,0.067092413,0.067092413,0.067092413
"431",242419,"Edmond, Oklahoma, United States of America",557,35.68708,-97.51541,"North America",0.071682833,0.086301666,0.079494479,0.059951546,0.059951546,0.075350507
"432",242512,"Irvine, California, United States of America",557,33.68233,-117.7661,"North America",0.076239754,0.179307926,0.06008585,0.064889361,0.054454075,0.090425341
"433",242543,"Fountain Hills, Arizona, United States of America",557,33.60739,-111.7395,"North America",0.063054071,0.079118634,0.056944795,0.057971237,0.05570012,0.05570012
"434",242605,"Effingham (and vicinity), Illinois, United States of America",464,39.13841,-88.56116,"North America",0.071759209,0.092345925,0.063745801,0.063745801,0.063745801,0.076812983
"435",242729,"El Segundo, California, United States of America",557,33.91737,-118.4011,"North America",0.14729949,0.124844499,0.06743042,0.057090811,0.052546517,0.060503694
"436",243039,"Elmhurst, Illinois, United States of America",557,41.89544,-87.94331,"North America",0.067392309,0.080902366,0.060472892,0.060472892,0.060472892,0.070132868
"437",243287,"Arcadia, California, United States of America",557,34.13203,-118.0394,"North America",0.066148145,0.091892973,0.06561109,0.059708165,0.059708165,0.067370312
"438",243473,"Livonia, Michigan, United States of America",557,42.39706,-83.37329,"North America",0.082438796,0.129656936,0.060517281,0.073043901,0.057417811,0.061230773
"439",243566,"Essex Junction, Vermont, United States of America",557,44.52089,-73.06416,"North America",0.073219706,0.090534956,0.056262551,0.064424781,0.056262551,0.091433435
"440",243597,"Estes Park, Colorado, United States of America",557,40.39187,-105.6128,"North America",0.074208364,0.073619592,0.057048049,0.054951266,0.054951266,0.059736484
"441",243690,"Denville, New Jersey, United States of America",557,40.88623,-74.48906,"North America",0.081530515,0.086704738,0.058753872,0.058753872,0.058753872,0.079149351
"442",244279,"Winchester, Kentucky, United States of America",557,37.96854,-84.14508,"North America",0.067228246,0.082600709,0.062182526,0.062182526,0.062182526,0.071603216
"443",244403,"Windsor, Connecticut, United States of America",557,41.87171,-72.67398,"North America",0.057745965,0.108486081,0.058444467,0.080643323,0.057745965,0.067767796
"444",244496,"Windsor Locks, Connecticut, United States of America",557,41.92696,-72.65524,"North America",0.106866115,0.126738947,0.069732014,0.06248427,0.062467981,0.062467981
"445",244682,"Winnsboro, Louisiana, United States of America",557,32.16324,-91.71728,"North America",0.067081786,0.067081786,0.067081786,0.067081786,0.067081786,0.067081786
"446",244744,"Winona, Mississippi, United States of America",557,33.48299,-89.74043,"North America",0.062355803,0.066384741,0.062355803,0.062355803,0.062355803,0.072733523
"447",244899,"Douglasville, Georgia, United States of America",557,33.74318,-84.73144,"North America",0.085268213,0.069238846,0.061235516,0.078571842,0.061235516,0.078571842
"448",245178,"Nis, Serbia",557,43.34113,21.88004,"Europe",0.064719792,0.069434549,0.064719792,0.064719792,0.064719792,0.064719792
"449",245519,"Wood Dale, Illinois, United States of America",557,41.96902,-87.97854,"North America",0.064682135,0.093252692,0.058194313,0.065482982,0.058194313,0.062196822
"450",245581,"Sturgis, Michigan, United States of America",557,41.80103,-85.41993,"North America",0.069825974,0.070595365,0.063331755,0.063331755,0.063331755,0.067650436
"451",245860,"Kissimmee, Florida, United States of America",557,28.27509,-81.44813,"North America",0.183145808,0.078682668,0.054221093,0.050642709,0.05013988,0.052152447
"452",247627,"Gatesville, Texas, United States of America",557,31.41171,-97.78072,"North America",0.070024946,0.070309189,0.064218169,0.069040593,0.064218169,0.073747814
"453",247689,"Giddings, Texas, United States of America",557,30.16168,-96.93063,"North America",0.068564759,0.067313235,0.064098517,0.064098517,0.064098517,0.064098517
"454",247875,"Port Fairy, Victoria, Australia",557,-38.34252,142.1852,"Australia",0.065598488,0.065598488,0.065598488,0.136913161,0.065598488,0.065598488
"455",248340,"Jupiter, Florida, United States of America",557,26.94777,-80.18157,"North America",0.066953165,0.081528687,0.058987676,0.057945923,0.057894563,0.057894563
"456",248557,"Grandville, Michigan, United States of America",557,42.87696,-85.77263,"North America",0.088456213,0.08475166,0.067997202,0.063242247,0.063242247,0.081347546
"457",248774,"Panama City Beach, Florida, United States of America",557,30.22066,-85.86906,"North America",0.10146202,0.072436348,0.05189874,0.051932061,0.051898538,0.0849594
"458",248836,"Grand Haven, Michigan, United States of America",557,43.03691,-86.21171,"North America",0.08560147,0.074940511,0.063534462,0.064411369,0.063534462,0.063534462
"459",249456,"LaVale, Maryland, United States of America",557,39.64732,-78.83414,"North America",0.116785828,0.076361889,0.064937679,0.064937679,0.064937679,0.07174292
"460",250014,"Fairborn, Ohio, United States of America",557,39.81592,-83.99942,"North America",0.080355011,0.095790181,0.064907917,0.062231713,0.062231713,0.101883715
"461",250293,"Jingdezhen, China",557,29.247,117.2824,"Asia",0.065835655,0.084150673,0.065835655,0.065835655,0.065835655,0.065835655
"462",250634,"Farmers Branch, Texas, United States of America",557,32.92467,-96.89105,"North America",0.083778645,0.108056411,0.079373569,0.065897578,0.062304347,0.06242174
"463",250944,"Garden City, New York, United States of America",557,40.72781,-73.63555,"North America",0.086360379,0.122430798,0.060590327,0.059214428,0.059215842,0.092774173
"464",251192,"Florence, Kentucky, United States of America",557,38.98695,-84.6469,"North America",0.093500718,0.109367211,0.070509462,0.061630411,0.061630411,0.06290212
"465",251719,"Joliet, Illinois, United States of America",557,41.51612,-88.10109,"North America",0.068426466,0.098112105,0.057505111,0.05796657,0.057505111,0.057505111
"466",251843,"Fort Lee, New Jersey, United States of America",557,40.85086,-73.97311,"North America",0.070824846,0.099712665,0.058530448,0.058530448,0.058530448,0.068753798
"467",253145,"Hudson, Ohio, United States of America",557,41.24482,-81.44849,"North America",0.090160179,0.101708935,0.069856086,0.074389454,0.058141027,0.082584884
"468",254354,"Itasca, Illinois, United States of America",557,41.97046,-88.01906,"North America",0.074109068,0.13767431,0.069353264,0.058309527,0.058309527,0.058309527
"469",254540,"Fletcher, North Carolina, United States of America",557,35.4426,-82.47201,"North America",0.064982334,0.073292088,0.059842203,0.059842203,0.059842203,0.064185584
"470",254571,"Jefferson, Texas, United States of America",557,32.78808,-94.31468,"North America",0.067991282,0.0625958,0.0625958,0.0625958,0.0625958,0.066894055
"471",254726,"Kapaa, Hawaii, United States of America",557,22.08376,-159.3524,"North America",0.080262019,0.066267737,0.050754336,0.052325072,0.05082061,0.050720525
"472",254757,"Hanover, Maryland, United States of America",557,39.17012,-76.72324,"North America",0.070340948,0.109670332,0.068112794,0.073531358,0.059417926,0.066407928
"473",254881,"Kahuku, Hawaii, United States of America",557,21.67557,-157.9771,"North America",0.056663445,0.058122996,0.052714522,0.061224782,0.056258691,0.050258333
"474",255470,"Guelph, Ontario, Canada",557,43.53439,-80.24648,"North America",0.068656047,0.08267257,0.070378347,0.060467022,0.060467022,0.175438724
"475",255563,"Gurnee, Illinois, United States of America",557,42.37451,-87.94167,"North America",0.064838662,0.07894761,0.058375333,0.058375333,0.058375333,0.060536051
"476",256462,"Hanamaulu, Lihue, Hawaii, United States of America",557,22.0023,-159.347,"North America",0.056342047,0.072909335,0.048417141,0.043367649,0.043363445,0.043363445
"477",257423,"Chicopee, Massachusetts, United States of America",557,42.17655,-72.57146,"North America",0.074676254,0.070756971,0.0670282,0.06262576,0.06262576,0.0845221
"478",257547,"Kaluga, Russia",557,54.51239,36.31261,"Europe",0.042016807,0.37815126,0.042016807,0.042016807,0.042016807,0.042016807
"479",257671,"Mackinac Island, Michigan, United States of America",557,45.86507,-84.63145,"North America",0.054301094,0.057177593,0.052557274,0.14820698,0.050907083,0.050907083
"480",258508,"Jackpot, Nevada, United States of America",557,41.9788,-114.672,"North America",0.080402848,0.071272579,0.059093852,0.059093852,0.059093852,0.059093852
"481",258632,"Hesperia, California, United States of America",557,34.38783,-117.3393,"North America",0.069122113,0.073993618,0.060823169,0.060823169,0.060823169,0.060823169
"482",258818,"Highland Park, Illinois, United States of America",557,42.17918,-87.80854,"North America",0.060147012,0.095993389,0.060147012,0.068793241,0.060147012,0.081378258
"483",259500,"Konya, Turkey",557,37.88951,32.48294,"Europe",0.064386783,0.075254235,0.064386783,0.064386783,0.064386783,0.073455305
"484",259810,"Lisle, Illinois, United States of America",557,41.79185,-88.08385,"North America",0.06125828,0.125711906,0.071428081,0.059795399,0.059795399,0.061903255
"485",260275,"Logan, Ohio, United States of America",557,39.52203,-82.41332,"North America",0.063509665,0.066520807,0.063509665,0.063509665,0.063509665,0.08113601
"486",260740,"Lathrop, California, United States of America",557,37.81249,-121.3043,"North America",0.067457361,0.076628059,0.065370243,0.065370243,0.065370243,0.065370243
"487",261763,"Lynwood, California, United States of America",557,33.92377,-118.2007,"North America",0.087993934,0.069010329,0.062099923,0.062099923,0.062099923,0.06760338
"488",262941,"Kutztown, Pennsylvania, United States of America",557,40.53671,-75.75523,"North America",0.099903159,0.063633207,0.062858187,0.062858187,0.062858187,0.080934876
"489",264863,"Larkspur, California, United States of America",557,37.93808,-122.5323,"North America",0.069381639,0.070917843,0.059516214,0.059516214,0.059516214,0.069381639
"490",265483,"Lompoc, California, United States of America",557,34.60319,-120.4722,"North America",0.08311078,0.081287558,0.060270275,0.060270275,0.060270275,0.060270275
"491",266134,"Lusk, Wyoming, United States of America",557,42.99714,-104.3012,"North America",0.06314162,0.066248658,0.06314162,0.06314162,0.06314162,0.06314162
"492",266723,"Lewisville, Texas, United States of America",557,33.04983,-97.02145,"North America",0.067727182,0.080504286,0.063763993,0.061774791,0.061774791,0.061774791
"493",267033,"Liberty, Missouri, United States of America",557,39.26078,-94.39178,"North America",0.071977595,0.072851534,0.059426824,0.067776503,0.059426824,0.075184965
"494",268707,"Monmouth, Illinois, United States of America",557,40.91066,-90.64027,"North America",0.066804313,0.071865603,0.066804313,0.066804313,0.066804313,0.090245789
"495",269079,"Mount Pleasant, Pennsylvania, United States of America",557,40.1675,-79.49458,"North America",0.065807255,0.069583942,0.065807255,0.065807255,0.065807255,0.065807255
"496",269141,"Monroe, Georgia, United States of America",557,33.80221,-83.69032,"North America",0.06494305,0.06494305,0.06494305,0.06494305,0.06494305,0.06494305
"497",269823,"Maplewood, Minnesota, United States of America",557,44.98365,-93.02467,"North America",0.073777688,0.090689091,0.060262601,0.060137439,0.060137439,0.064198232
"498",270691,"Montgomery, New York, United States of America",557,41.52714,-74.24835,"North America",0.136146456,0.065144746,0.065144746,0.065144746,0.065144746,0.065144746
"499",271094,"Maryville, Missouri, United States of America",557,40.339,-94.88731,"North America",0.066157066,0.086553723,0.066157066,0.066157066,0.066157066,0.076674971
"500",271156,"Mission, Texas, United States of America",557,26.32549,-98.41875,"North America",0.071500048,0.085623809,0.065735054,0.065735054,0.065735054,0.065735054
"501",271311,"Mason, Ohio, United States of America",557,39.35161,-84.31071,"North America",0.092813581,0.076205569,0.06198544,0.055741734,0.055741734,0.055741734
"502",271497,"Maumee, Ohio, United States of America",557,41.57368,-83.68439,"North America",0.074825186,0.093774661,0.061600862,0.061600862,0.061600862,0.063332373
"503",271962,"Marshall, Minnesota, United States of America",557,44.44002,-95.76109,"North America",0.062920915,0.081848588,0.062920915,0.072130983,0.062920915,0.079099439
"504",272210,"Marion, Ohio, United States of America",557,40.59624,-83.13445,"North America",0.077481253,0.093378469,0.060647364,0.060647364,0.060647364,0.069055375
"505",272303,"Mountain View, Arkansas, United States of America",557,35.86525,-92.11553,"North America",0.060826911,0.069469881,0.069469881,0.065174955,0.060613594,0.065174955
"506",272489,"Morris, Minnesota, United States of America",557,45.59649,-95.9463,"North America",0.067092413,0.067092413,0.067092413,0.067092413,0.067092413,0.067092413
"507",272861,"Montpelier, Vermont, United States of America",557,44.28224,-72.59829,"North America",0.16214225,0.078810396,0.060452988,0.060452988,0.060452988,0.147748351
"508",273016,"Quincy, Massachusetts, United States of America",557,42.26358,-71.0058,"North America",0.088401063,0.113473924,0.056612645,0.092824187,0.056008227,0.071022777
"509",273915,"Mexico, Missouri, United States of America",557,39.21067,-91.88748,"North America",0.069396794,0.073624743,0.06247246,0.068438841,0.06247246,0.075363175
"510",274504,"Middleburg Heights, Ohio, United States of America",557,41.36987,-81.81306,"North America",0.125845027,0.09378771,0.062261083,0.062261083,0.062261083,0.073238658
"511",275062,"Marlborough, Massachusetts, United States of America",557,42.34914,-71.54778,"North America",0.063867627,0.098564279,0.073234488,0.06284036,0.062173482,0.065739496
"512",275434,"Milford, Connecticut, United States of America",557,41.22215,-73.05881,"North America",0.068013323,0.110830941,0.057346467,0.081711957,0.057058055,0.084907937
"513",276085,"North Dartmouth, Massachusetts, United States of America",557,41.65347,-71.01075,"North America",0.074219906,0.069913177,0.06196247,0.077817398,0.06196247,0.067344207
"514",276519,"New Holland, Pennsylvania, United States of America",557,40.10489,-76.08007,"North America",0.069131112,0.105346583,0.066276836,0.066276836,0.066276836,0.066276836
"515",276891,"New Rochelle, New York, United States of America",557,40.92523,-73.78356,"North America",0.061642699,0.085610943,0.061642699,0.061642699,0.061642699,0.084523616
"516",277480,"Newark, New York, United States of America",557,43.07109,-77.09666,"North America",0.066138646,0.06771221,0.066138646,0.066138646,0.066138646,0.066138646
"517",278379,"Morro Bay, California, United States of America",557,35.40274,-120.8018,"North America",0.076632309,0.063762604,0.054496242,0.100486385,0.054424027,0.05538612
"518",278410,"Morton, Illinois, United States of America",557,40.61045,-89.46008,"North America",0.071311029,0.078666388,0.066247626,0.066247626,0.066247626,0.06750115
"519",280084,"North Palm Beach, Florida, United States of America",557,26.82404,-80.06357,"North America",0.095930333,0.072865143,0.062571816,0.062017452,0.058698356,0.058698356
"520",281386,"Parsippany, New Jersey, United States of America",557,40.85714,-74.40379,"North America",0.085141159,0.137147773,0.06813216,0.062194906,0.062194906,0.064233872
"521",281541,"Park Ridge, New Jersey, United States of America",557,41.0352,-74.04234,"North America",0.063881164,0.072939739,0.063881164,0.063881164,0.063881164,0.063881164
"522",282068,"Shelbyville, Indiana, United States of America",557,39.52672,-85.77748,"North America",0.061465065,0.06606767,0.078813886,0.061299025,0.061299025,0.078813886
"523",282502,"Pittston, Pennsylvania, United States of America",557,41.30589,-75.77889,"North America",0.084055739,0.09016584,0.066075442,0.066075442,0.066075442,0.066075442
"524",282750,"Piqua, Ohio, United States of America",557,40.15838,-84.23617,"North America",0.073796896,0.074313099,0.066242338,0.066242338,0.066242338,0.066242338
"525",282936,"Plainview, New York, United States of America",557,40.78308,-73.47404,"North America",0.064000447,0.10424804,0.062169163,0.062169163,0.062169163,0.062169163
"526",283153,"Platteville, Wisconsin, United States of America",557,42.74355,-90.49403,"North America",0.061491273,0.061491273,0.061491273,0.061491273,0.061491273,0.078534651
"527",283246,"Norco, California, United States of America",557,33.92605,-117.5506,"North America",0.076938845,0.07368481,0.061051782,0.061051782,0.061051782,0.078145511
"528",283525,"Northbrook, Illinois, United States of America",557,42.12482,-87.84047,"North America",0.093576787,0.103293605,0.063111513,0.063024052,0.063024052,0.078523471
"529",284145,"North East, Pennsylvania, United States of America",557,42.17371,-79.82843,"North America",0.059594842,0.064237779,0.059478645,0.076855275,0.059478645,0.059478645
"530",284486,"North Miami, Florida, United States of America",557,25.89943,-80.17844,"North America",0.059495365,0.090627789,0.053422308,0.070646506,0.053422308,0.072214407
"531",285075,"Northville, Michigan, United States of America",557,42.42157,-83.49963,"North America",0.060894899,0.068808343,0.060894899,0.060894899,0.060894899,0.067614743
"532",285385,"Norwalk, California, United States of America",557,33.90715,-118.083,"North America",0.105418538,0.096372968,0.061805461,0.061805461,0.061805461,0.063683683
"533",285757,"Omak, Washington, United States of America",557,48.41385,-119.5257,"North America",0.072833722,0.094297796,0.060704343,0.068890364,0.060704343,0.068890364
"534",286191,"Oak Park, Illinois, United States of America",557,41.89009,-87.79056,"North America",0.082980254,0.084915628,0.05752952,0.055007625,0.055007625,0.063153769
"535",287431,"Orillia, Ontario, Canada",557,44.60559,-79.40469,"North America",0.084467242,0.070809076,0.061683093,0.061216137,0.061216137,0.061216137
"536",287741,"Nusa Dua, Indonesia",557,-8.799149,115.2169,"Asia",0.064741986,0.061400091,0.089918516,0.054466996,0.076557822,0.054466996
"537",287865,"Hamamatsu, Japan",557,34.94638,137.8009,"Asia",0.074646379,0.072175214,0.066368013,0.066368013,0.066368013,0.066368013
"538",288082,"Spring Lake, New Jersey, United States of America",557,40.15291,-74.03685,"North America",0.065279605,0.067211628,0.065279605,0.065279605,0.065279605,0.065279605
"539",288175,"St. Philip, Barbados",774,13.1318,-59.45774,"South America",0.060271279,0.071075873,0.058386503,0.069824839,0.058386503,0.060401743
"540",289601,"Richfield, Ohio, United States of America",557,41.23949,-81.64388,"North America",0.099005502,0.086366725,0.062772874,0.061223331,0.061223331,0.067597393
"541",290934,"Plovdiv, Bulgaria",557,42.13033,24.77289,"Europe",0.065264994,0.0729368,0.063979931,0.063979931,0.063979931,0.063979931
"542",291027,"Tuban, Indonesia",557,-8.747415,115.1727,"Asia",0.081455406,0.072231227,0.062579132,0.062579132,0.062579132,0.062579132
"543",291616,"Pottsville, Pennsylvania, United States of America",557,40.70349,-76.24573,"North America",0.064023255,0.078768289,0.064023255,0.064023255,0.064023255,0.064023255
"544",292236,"Prosser, Washington, United States of America",557,46.22115,-119.7902,"North America",0.065992242,0.06760749,0.065992242,0.065992242,0.065992242,0.065992242
"545",292453,"Puyallup, Washington, United States of America",557,47.15831,-122.2958,"North America",0.092870503,0.105421202,0.064327018,0.064327018,0.064327018,0.064327018
"546",292732,"Panguitch, Utah, United States of America",557,37.78502,-112.4494,"North America",0.103248095,0.06735253,0.064657212,0.064657212,0.064657212,0.064657212
"547",293042,"Poplar Bluff, Missouri, United States of America",557,36.7735,-90.44807,"North America",0.066967855,0.0691701,0.061856801,0.061856801,0.061856801,0.061856801
"548",293290,"Parsons, Kansas, United States of America",557,37.34147,-95.26237,"North America",0.066834674,0.068592078,0.066834674,0.066834674,0.066834674,0.066834674
"549",293476,"Palenque, Chiapas, Mexico",557,17.54252,-92.00834,"South America",0.064695877,0.069984085,0.064695877,0.064695877,0.064695877,0.064695877
"550",294871,"Bremerton, Washington, United States of America",557,47.58524,-122.7187,"North America",0.083957262,0.095243614,0.060364053,0.071094646,0.060364053,0.060364053
"551",295243,"Burnaby, British Columbia, Canada",557,49.24907,-122.9667,"North America",0.082665826,0.098297373,0.06733253,0.05784814,0.05784814,0.059127764
"552",295553,"Chesterfield, Missouri, United States of America",557,38.64378,-90.6216,"North America",0.063250575,0.080533952,0.061662874,0.07272216,0.057428774,0.07272216
"553",296266,"Latham, New York, United States of America",557,42.75315,-73.77868,"North America",0.091053805,0.109756141,0.060709561,0.060122091,0.060122091,0.06784914
"554",297692,"Red Bank, New Jersey, United States of America",557,40.35839,-74.07983,"North America",0.061592767,0.087883455,0.061592767,0.06673206,0.061592767,0.061592767
"555",298312,"Radcliff, Kentucky, United States of America",557,37.82634,-85.9246,"North America",0.06655346,0.097037051,0.063828583,0.063828583,0.063828583,0.063828583
"556",298529,"Red Hook, St. Thomas, U.S. Virgin Islands",557,18.3311,-64.85309,"South America",0.066689923,0.064317709,0.064317709,0.07127246,0.064317709,0.064317709
"557",299707,"St. Ann's Bay, Jamaica",557,18.43827,-77.21052,"South America",0.066841889,0.066841889,0.066841889,0.066841889,0.066841889,0.066841889
"558",299831,"Sandwich, Massachusetts, United States of America",557,41.7216,-70.48582,"North America",0.080455788,0.075896938,0.058802221,0.065221387,0.058802221,0.058802221
"559",300420,"Yreka, California, United States of America",557,41.73208,-122.651,"North America",0.077136046,0.107354347,0.060516994,0.060516994,0.060516994,0.067335431
"560",302063,"Rivne, Ukraine",557,50.60617,26.26641,"Europe",0.066251325,0.067835107,0.066251325,0.066251325,0.066251325,0.066251325
"561",302094,"Quezon City, Philippines",557,14.67049,121.0543,"Asia",0.074552887,0.077349057,0.060118012,0.064830105,0.060023236,0.072645972
"562",303644,"Sanibel, Florida, United States of America",557,26.45041,-82.09524,"North America",0.053385166,0.054859057,0.050454997,0.0504526,0.0504526,0.0504526
"563",303768,"Shelton, Connecticut, United States of America",557,41.30399,-73.1375,"North America",0.062901771,0.092877117,0.060906672,0.066584207,0.060727182,0.088192759
"564",303799,"San Miguel de Allende, Guanajuato, Mexico",557,20.91413,-100.6685,"South America",0.063137526,0.073036233,0.065181647,0.06210806,0.06210806,0.06210806
"565",304171,"Stone Mountain, Georgia, United States of America",557,33.79729,-84.16313,"North America",0.080825358,0.078054476,0.060958748,0.067284793,0.058413904,0.067284793
"566",304822,"Scottsdale, Arizona, United States of America",557,33.66386,-111.8132,"North America",0.086518583,0.128828121,0.065866979,0.056462266,0.053812979,0.057633735
"567",305163,"Selma, Alabama, United States of America",557,32.38189,-87.02433,"North America",0.062872779,0.080290903,0.062824693,0.062824693,0.062824693,0.062824693
"568",305287,"Southaven, Mississippi, United States of America",557,34.95209,-89.97461,"North America",0.074375093,0.087842973,0.063992465,0.063992465,0.063992465,0.063992465
"569",305597,"Stuttgart, Arkansas, United States of America",557,34.37603,-91.53682,"North America",0.066986962,0.070016806,0.066986962,0.066986962,0.066986962,0.066986962
"570",306961,"St. Moritz, Switzerland",557,46.4903,9.816709,"Europe",0.062895222,0.067627015,0.062895222,0.062895222,0.062895222,0.062895222
"571",308511,"Statesville, North Carolina, United States of America",557,35.82591,-80.8972,"North America",0.071776687,0.080094503,0.062802662,0.062802662,0.062802662,0.070657634
"572",308697,"Stawell, Victoria, Australia",557,-37.07314,142.7592,"Australia",0.066847861,0.069861725,0.066847861,0.066847861,0.066847861,0.066847861
"573",308790,"Stillwater, Oklahoma, United States of America",557,36.11874,-97.09621,"North America",0.066574733,0.080596266,0.062352612,0.062352612,0.062352612,0.104656373
"574",309100,"Sidney, New York, United States of America",557,42.29086,-75.39535,"North America",0.133165832,0.083421389,0.063729181,0.063729181,0.063729181,0.072773619
"575",310898,"Landover, Maryland, United States of America",557,38.9189,-76.8782,"North America",0.074888173,0.096256144,0.063562305,0.063562305,0.063562305,0.063562305
"576",310991,"Totowa, New Jersey, United States of America",557,40.90327,-74.22183,"North America",0.068174398,0.067922755,0.062602556,0.062602556,0.062602556,0.067229871
"577",311022,"Tryon, North Carolina, United States of America",557,35.21762,-82.2467,"North America",0.061400842,0.066493562,0.061400842,0.065767997,0.061400842,0.061400842
"578",311084,"Taranto, Italy",557,40.45919,17.2721,"Europe",0.065567549,0.072722021,0.065567549,0.065567549,0.065567549,0.065567549
"579",312665,"Torrance, California, United States of America",557,33.83583,-118.3339,"North America",0.076367313,0.098729386,0.06455637,0.064745138,0.057695594,0.064261905
"580",313657,"Suwanee, Georgia, United States of America",557,34.05324,-84.08386,"North America",0.080537774,0.079940548,0.066207095,0.065269975,0.065269975,0.065269975
"581",313905,"Uniondale, New York, United States of America",557,40.70441,-73.59121,"North America",0.071873525,0.078972333,0.075010808,0.061572912,0.061572912,0.089204727
"582",314215,"Camden, Alabama, United States of America",557,31.9897,-87.27637,"North America",0.067051017,0.067051017,0.067051017,0.067051017,0.067051017,0.067051017
"583",314401,"North Redington Beach, Florida, United States of America",557,27.8202,-82.8204,"North America",0.05513024,0.068773634,0.054435282,0.054435282,0.054435282,0.054435282
"584",314494,"Bloomsburg, Pennsylvania, United States of America",557,41.03174,-76.45112,"North America",0.062651221,0.069196093,0.062651221,0.08153091,0.062651221,0.086653659
"585",314773,"South Lake Tahoe, California, United States of America",557,38.89212,-120.0344,"North America",0.092079386,0.076539879,0.051523056,0.051381982,0.050924773,0.052117365
"586",317842,"Cromwell, New Zealand",557,-44.95961,169.1948,"Australia",0.066585711,0.06784294,0.066585711,0.066585711,0.066585711,0.066585711
"587",317935,"Townsend, Tennessee, United States of America",557,35.61988,-83.77728,"North America",0.063701075,0.082384829,0.063701075,0.063701075,0.063701075,0.063701075
"588",318431,"Vijayawada, India",557,16.5257,80.65221,"Asia",0.065066778,0.083033157,0.065066778,0.065066778,0.065066778,0.065066778
"589",318555,"Vicksburg, Mississippi, United States of America",557,32.33267,-90.86839,"North America",0.073700512,0.075679753,0.060019664,0.060019664,0.060019664,0.060019664
"590",318865,"Vallejo, California, United States of America",557,38.11835,-122.257,"North America",0.12144323,0.094022836,0.060820782,0.060820782,0.060820782,0.062056645
"591",318896,"Palm Desert, California, United States of America",557,33.7376,-116.3613,"North America",0.06302763,0.079504685,0.06106063,0.054619983,0.054619983,0.056590582
"592",319671,"Waunakee, Wisconsin, United States of America",557,43.18155,-89.46011,"North America",0.066292545,0.085306283,0.066292545,0.066292545,0.066292545,0.066292545
"593",319702,"Weehawken, New Jersey, United States of America",557,40.76746,-74.01928,"North America",0.078786839,0.080433255,0.055243356,0.141937887,0.053053057,0.057601078
"594",320012,"Beauport, Quebec City, Quebec, Canada",774,46.89477,-71.2086,"North America",0.101822093,0.070881277,0.059604899,0.059604899,0.059604899,0.059604899
"595",320136,"Kyoto, Japan",557,35.0784,135.7227,"Asia",0.075010099,0.080998631,0.058370272,0.054935508,0.054718881,0.054994131
"596",320725,"Bend, Oregon, United States of America",557,44.07834,-121.2686,"North America",0.096699374,0.094789134,0.056578403,0.054114136,0.054114136,0.056435591
"597",321593,"Woodbury, Minnesota, United States of America",557,44.90535,-92.92329,"North America",0.078778344,0.085077133,0.063489039,0.063489039,0.063489039,0.063489039
"598",321872,"Wauseon, Ohio, United States of America",557,41.5737,-84.15585,"North America",0.066878712,0.082669472,0.066878712,0.066878712,0.066878712,0.066878712
"599",322244,"Mount Laurel, New Jersey, United States of America",557,39.94854,-74.90437,"North America",0.089252118,0.122555661,0.066198348,0.06254905,0.062450999,0.063322126
"600",323205,"Canton, Michigan, United States of America",557,42.30713,-83.48666,"North America",0.08513768,0.080476668,0.060071147,0.082107279,0.060071147,0.068079352
"601",323236,"Naga, Philippines",557,13.63746,123.2443,"Asia",0.065737245,0.070118726,0.065737245,0.068607591,0.065737245,0.065737245
"602",323298,"Waterbury, Connecticut, United States of America",557,41.55798,-73.03667,"North America",0.064046036,0.081563378,0.064046036,0.064046036,0.064046036,0.065008799
"603",324383,"Watsonville, California, United States of America",557,36.94072,-121.7487,"North America",0.073412226,0.081340142,0.06132094,0.06132094,0.06132094,0.06132094
"604",324631,"Westley, California, United States of America",557,37.55167,-121.2292,"North America",0.071579701,0.068856582,0.066397391,0.066397391,0.066397391,0.066397391
"605",325530,"Coron, Philippines",557,12.02848,120.2272,"Asia",0.061364507,0.064166805,0.061364507,0.070630776,0.061364507,0.061364507
"606",325561,"Colac, Victoria, Australia",557,-38.3484,143.587,"Australia",0.066568191,0.066568191,0.066568191,0.066568191,0.066568191,0.066568191
"607",325685,"Lake Geneva, Wisconsin, United States of America",557,42.57055,-88.45631,"North America",0.061633841,0.076572173,0.057697984,0.078293743,0.057676011,0.05959314
"608",326646,"Valle de Bravo, Mexico, Estado de, Mexico",557,19.19283,-100.1409,"South America",0.062954331,0.065263266,0.062954331,0.062954331,0.062954331,0.062954331
"609",326708,"Yadkinville, North Carolina, United States of America",557,36.11356,-80.63557,"North America",0.066158572,0.067732136,0.066158572,0.066158572,0.066158572,0.066158572
"610",327049,"Goose Creek, South Carolina, United States of America",557,32.99581,-79.98471,"North America",0.076540141,0.074164774,0.060391428,0.068809237,0.060391428,0.078987833
"611",328041,"Jasper, Alberta, Canada",557,52.8651,-118.0677,"North America",0.080943564,0.065475307,0.055557976,0.054192929,0.054192929,0.054192929
"612",328072,"Kitchener (and vicinity), Ontario, Canada",464,43.42972,-80.43339,"North America",0.067489403,0.090625455,0.064724376,0.057301434,0.057301434,0.086695848
"613",328692,"Ayers Cliff, Quebec, Canada",557,45.17281,-72.04568,"North America",0.065385429,0.066755668,0.065385429,0.065385429,0.065385429,0.065385429
"614",328971,"Sunset Beach, Huntington Beach, California, United States of America",557,33.71759,-118.0716,"North America",0.078776739,0.068321794,0.06241117,0.070677959,0.054702302,0.054702302
"615",329002,"Sherbrooke, Quebec, Canada",557,45.3977,-71.95078,"North America",0.064224209,0.082886083,0.07552077,0.062506287,0.062506287,0.080597905
"616",329467,"Swift Current, Saskatchewan, Canada",557,50.29133,-107.7486,"North America",0.110418123,0.08483365,0.063693515,0.063693515,0.063693515,0.063693515
"617",329963,"Culpeper, Virginia, United States of America",557,38.44428,-77.98891,"North America",0.074894869,0.078056058,0.062329095,0.062329095,0.062329095,0.081637765
"618",330149,"Marianna, Florida, United States of America",557,30.75403,-85.21832,"North America",0.068606052,0.088645158,0.063710849,0.063710849,0.063710849,0.063710849
"619",330273,"Aberdeen, Mississippi, United States of America",557,33.82164,-88.54626,"North America",0.06688325,0.068487871,0.06688325,0.06688325,0.06688325,0.06688325
"620",332350,"Sulzbach, Germany",557,50.13101,8.53052,"Europe",0.066211962,0.104490038,0.066211962,0.066211962,0.066211962,0.066211962
"621",333435,"Edgartown, Massachusetts, United States of America",557,41.38646,-70.5229,"North America",0.077777522,0.067448217,0.053397724,0.14025359,0.053397724,0.062190537
"622",334055,"Sunrise, Florida, United States of America",557,26.15899,-80.29808,"North America",0.084252359,0.105385393,0.07842199,0.064245417,0.059570244,0.064595681
"623",334489,"Leavenworth, Washington, United States of America",557,47.79248,-120.8629,"North America",0.106726665,0.090552024,0.056721895,0.060114948,0.055749977,0.055749977
"624",334799,"Antioch, Tennessee, United States of America",557,36.04328,-86.6388,"North America",0.088058221,0.091067015,0.061805285,0.061805285,0.061805285,0.062933172
"625",334861,"Chambers, Arizona, United States of America",557,34.94908,-109.473,"North America",0.065161535,0.065161535,0.065161535,0.065161535,0.065161535,0.065161535
