"","destination_id","Destination_name","destination_type_id","destination_latitude","destination_longitude","Continent","Sports_Baseball","Sports_Basketball","Sports_Cross_Country_Skiing","Sports_Football","Sports_Golf","Sports_Hockey","Sports_Indoor_Skiing","Sports_Running","Sports_Skiing","Sports_Snowboarding","Sports_Soccer","Sports_Sports"
"1",8152,"Aarhus (and vicinity), Denmark",464,56.15309,10.205722,"Europe",0.06397231,0.06397231,0.06397231,0.06397231,0.076612692,0.06397231,0.06397231,0.06397231,0.066065269,0.06397231,0.06397231,0.072580886
"2",8710,"Albany (and vicinity), Georgia, United States of America",464,31.617903,-84.2226,"North America",0.064657527,0.064657527,0.064657527,0.064657527,0.070057581,0.064657527,0.064657527,0.064657527,0.064657527,0.064657527,0.064657527,0.081077229
"3",9485,"Akureyri, Iceland",557,65.72356,-18.10845,"Europe",0.064390792,0.064390792,0.066713672,0.064390792,0.070197993,0.064390792,0.064390792,0.064390792,0.067875112,0.067875112,0.064390792,0.064390792
"4",10043,"Athens (and vicinity), Georgia, United States of America",464,33.95772,-83.388577,"North America",0.062859997,0.062978055,0.062859997,0.077089612,0.07363275,0.062859997,0.062859997,0.062859997,0.062859997,0.062859997,0.062859997,0.101897209
"5",10105,"Al Hoceima, Morocco",557,35.24044,-3.929738,"Africa",0.066520319,0.066520319,0.069122452,0.066520319,0.066520319,0.066520319,0.066520319,0.066520319,0.069122452,0.066520319,0.066520319,0.071724586
"6",10198,"Anderson, Indiana, United States of America",557,40.09165,-85.65928,"North America",0.060241387,0.060241387,0.060241387,0.061229367,0.071678963,0.060241387,0.060241387,0.060241387,0.060241387,0.060241387,0.060241387,0.086772433
"7",11190,"Alpine (and vicinity), Texas, United States of America",464,30.364678,-103.639926,"North America",0.062400936,0.062400936,0.069526226,0.062400936,0.063287068,0.062400936,0.062400936,0.062400936,0.069526226,0.062400936,0.062400936,0.072576319
"8",11376,"Alamogordo, New Mexico, United States of America",557,32.73735,-106.0033,"North America",0.062820641,0.062820641,0.062820641,0.062820641,0.093013067,0.062820641,0.062820641,0.062820641,0.064104338,0.062820641,0.062820641,0.068246503
"9",12988,"Armidale, New South Wales, Australia",557,-30.52389,151.6555,"Australia",0.066308381,0.066308381,0.066308381,0.066308381,0.070306781,0.066308381,0.066308381,0.066308381,0.066308381,0.066308381,0.066308381,0.067641181
"10",13484,"Astoria, Oregon, United States of America",557,46.12418,-123.6769,"North America",0.056799519,0.056799519,0.056799519,0.056799519,0.059086976,0.056799519,0.056799519,0.056799519,0.056799519,0.056799519,0.056799519,0.060715174
"11",13980,"Appleton - Lake Winnebago (and vicinity), Wisconsin, United States of America",464,44.26222,-88.46827,"North America",0.068490162,0.059070427,0.060832173,0.069683664,0.074482926,0.059030696,0.059030696,0.059030696,0.06566487,0.059802758,0.063257892,0.098229199
"12",14011,"Watertown, South Dakota, United States of America",557,44.93607,-97.09045,"North America",0.061703365,0.061703365,0.062503045,0.061703365,0.072434348,0.061703365,0.061703365,0.061703365,0.068435947,0.061703365,0.061703365,0.066068783
"13",14166,"Abu Dhabi, United Arab Emirates",557,24.45503,54.50751,"Asia",0.056954803,0.056954803,0.056954803,0.056954803,0.08218006,0.07402413,0.056954803,0.056954803,0.074878441,0.056954803,0.056954803,0.112963502
"14",14569,"Avignon, France",774,43.94932,4.816989,"Europe",0.062187787,0.062187787,0.062187787,0.062187787,0.072418137,0.062187787,0.062187787,0.062187787,0.062187787,0.062187787,0.062187787,0.066820588
"15",14755,"Anguilla (all), Anguilla",464,18.180819,-63.134483,"South America",0.05844795,0.066504124,0.05844795,0.05844795,0.074449588,0.05844795,0.05844795,0.05844795,0.05844795,0.05844795,0.05844795,0.08240069
"16",15034,"Antalya, Turkey",557,36.89298,30.77626,"Europe",0.057397778,0.057397778,0.057397778,0.057397778,0.064596959,0.057397778,0.057397778,0.057397778,0.061834902,0.057397778,0.057397778,0.07807343
"17",15499,"Baotou, China",557,41.60901,110.2638,"Asia",0.065861819,0.065861819,0.065861819,0.065861819,0.065861819,0.065861819,0.065861819,0.065861819,0.065861819,0.065861819,0.065861819,0.081410896
"18",15902,"Bacolod, Philippines",557,10.6775,122.952,"Asia",0.060725836,0.060725836,0.060725836,0.069836501,0.083132927,0.060725836,0.060725836,0.060725836,0.060725836,0.060725836,0.060725836,0.087853448
"19",16801,"Bethel, Alaska, United States of America",557,60.79359,-161.8039,"North America",0.066326205,0.083817218,0.066326205,0.066326205,0.066326205,0.066326205,0.066326205,0.066326205,0.066326205,0.066326205,0.066326205,0.083817218
"20",16987,"Bradford, Pennsylvania, United States of America",557,41.91562,-78.76539,"North America",0.071080392,0.063526095,0.063526095,0.063526095,0.064375497,0.063526095,0.063526095,0.063526095,0.065146298,0.063526095,0.063526095,0.073097958
"21",18568,"Bujumbura, Burundi",557,-3.390973,29.3582,"Africa",0.062011075,0.062011075,0.062011075,0.062011075,0.063602672,0.062011075,0.062011075,0.062011075,0.062011075,0.062011075,0.062011075,0.080669028
"22",18847,"Bangkok, Thailand",557,13.7704,100.6211,"Asia",0.051154703,0.056224109,0.051154703,0.068161394,0.059281552,0.051154703,0.051154703,0.051301976,0.05123471,0.051154703,0.051154703,0.131821955
"23",21296,"Barquisimeto, Venezuela",557,10.03041,-69.31138,"South America",0.060240964,0.060240964,0.060240964,0.060240964,0.060240964,0.060240964,0.060240964,0.060240964,0.060240964,0.060240964,0.060240964,0.120481928
"24",21327,"Bern, Switzerland",557,46.9477,7.40662,"Europe",0.062305518,0.062305518,0.063060634,0.062305518,0.06381575,0.062305518,0.062305518,0.062305518,0.063060634,0.063060634,0.062305518,0.071594996
"25",22319,"Buenos Aires, Argentina",557,-34.61037,-58.44113,"South America",0.055465757,0.055465757,0.055465757,0.068984103,0.066842044,0.055465757,0.055465757,0.055465757,0.061336134,0.055465757,0.068278822,0.090032731
"26",23373,"Dibba, Oman",557,25.65178,56.21976,"Asia",0.0658809,0.0658809,0.0658809,0.0658809,0.0658809,0.0658809,0.0658809,0.0658809,0.0658809,0.0658809,0.0658809,0.067395822
"27",23590,"Bozeman (and vicinity), Montana, United States of America",464,45.69789,-111.04859,"North America",0.062189167,0.062195121,0.06583728,0.063971813,0.072091189,0.062189167,0.062189167,0.062189167,0.080712842,0.06583728,0.062189167,0.082650584
"28",23683,"Brazzaville, Republic of the Congo",557,-4.237149,15.29222,"Africa",0.066913093,0.066913093,0.066913093,0.066913093,0.069908002,0.066913093,0.066913093,0.066913093,0.066913093,0.066913093,0.066913093,0.069908002
"29",23776,"Cascavel (Parana), Brazil",557,-24.95574,-53.43666,"South America",0.065889955,0.065889955,0.065889955,0.065889955,0.065889955,0.065889955,0.065889955,0.065889955,0.065889955,0.065889955,0.065889955,0.076185966
"30",24954,"Crescent City, California, United States of America",557,41.77528,-124.0064,"North America",0.060957266,0.060957266,0.060957266,0.060957266,0.067067134,0.060957266,0.060957266,0.060957266,0.065235464,0.060957266,0.060957266,0.062165809
"31",25574,"Cologne, Germany",557,50.94614,6.973173,"Europe",0.061380132,0.061380132,0.061380132,0.061725642,0.066331534,0.061380132,0.061380132,0.061380132,0.061380132,0.061380132,0.061382347,0.074445927
"32",26194,"Chipata, Zambia",557,-13.63118,32.63906,"Africa",0.066970688,0.066970688,0.066970688,0.066970688,0.066970688,0.066970688,0.066970688,0.066970688,0.066970688,0.066970688,0.066970688,0.066970688
"33",26814,"College Station (and vicinity), Texas, United States of America",464,30.62921,-96.31858,"North America",0.087427397,0.063645116,0.059151672,0.088382153,0.070241419,0.059151672,0.059151672,0.063310412,0.059151672,0.059151672,0.059151672,0.136522584
"34",26969,"Charlotte, North Carolina, United States of America",557,35.22723,-80.8362,"North America",0.052716191,0.05542816,0.053161774,0.087615165,0.067445208,0.101696525,0.052584262,0.052584262,0.053161774,0.052776766,0.052985873,0.135384875
"35",27217,"Columbus, Ohio, United States of America",557,39.98415,-82.98585,"North America",0.057219336,0.06432959,0.05730576,0.08834208,0.070917568,0.062619875,0.057070333,0.057741853,0.05730576,0.05730576,0.057915192,0.144154301
"36",27310,"Club Makokola, Mangochi, Malawi",557,-14.30099,35.11935,"Africa",0.066727253,0.066727253,0.066727253,0.066727253,0.066727253,0.066727253,0.066727253,0.066727253,0.066727253,0.066727253,0.066727253,0.068205449
"37",27341,"Clermont, Queensland, Australia",557,-22.7198,147.4383,"Australia",0.064516129,0.064516129,0.064516129,0.064516129,0.064516129,0.064516129,0.064516129,0.064516129,0.064516129,0.064516129,0.064516129,0.064516129
"38",27837,"Coeur d'Alene, Idaho, United States of America",557,47.64194,-116.7035,"North America",0.05916714,0.060722312,0.060864621,0.058928887,0.068042326,0.058928887,0.058928887,0.058928887,0.073285741,0.060864621,0.058928887,0.117944421
"39",28240,"Copiapo, Chile",557,-27.3642,-70.33157,"South America",0.066563052,0.066563052,0.066563052,0.066563052,0.066563052,0.066563052,0.066563052,0.066563052,0.066563052,0.066563052,0.066563052,0.066563052
"40",28953,"Chengdu, China",557,30.69975,103.8605,"Asia",0.059798921,0.059798921,0.059798921,0.059798921,0.060120782,0.059798921,0.059798921,0.059798921,0.064173314,0.059798921,0.059798921,0.086982811
"41",28984,"Cucuta, Colombia",557,7.907297,-72.50908,"South America",0.064992795,0.064992795,0.064992795,0.064992795,0.071804534,0.064992795,0.064992795,0.064992795,0.064992795,0.064992795,0.064992795,0.070729815
"42",29046,"Culiacan (and vicinity), Sinaloa, Mexico",464,24.813196,-107.401922,"South America",0.071999848,0.062611813,0.062611813,0.062611813,0.070810322,0.062611813,0.062611813,0.062611813,0.062611813,0.062611813,0.062611813,0.088787167
"43",29108,"Cancun, Quintana Roo, Mexico",557,21.12304,-86.88591,"South America",0.046255887,0.046620019,0.046237543,0.046468164,0.069174889,0.04625107,0.046237543,0.046374908,0.04653332,0.046237543,0.047559092,0.085261208
"44",30286,"Dhaka, Bangladesh",557,23.78061,90.40796,"Asia",0.061376673,0.061376673,0.061376673,0.061376673,0.062742793,0.061376673,0.061376673,0.061376673,0.061376673,0.061376673,0.061376673,0.068918833
"45",30782,"Dodge City, Kansas, United States of America",557,37.74656,-100.0187,"North America",0.064586595,0.080381029,0.060493106,0.064586595,0.066791991,0.060493106,0.060493106,0.060493106,0.067096506,0.060493106,0.060493106,0.085043551
"46",31216,"Durango, Durango, Mexico",557,24.03852,-104.6613,"South America",0.062073191,0.062073191,0.062073191,0.062073191,0.072786927,0.062073191,0.062073191,0.066950047,0.068836672,0.062073191,0.062073191,0.070312804
"47",31402,"Dijon, France",557,47.3233,5.039531,"Europe",0.062359682,0.062359682,0.062359682,0.062359682,0.072694531,0.062359682,0.062359682,0.062359682,0.062359682,0.062359682,0.062359682,0.066495448
"48",31960,"Geilo, Hol, Norway",557,60.53467,8.206244,"Europe",0.066428107,0.066428107,0.070426508,0.066428107,0.068427307,0.066428107,0.066428107,0.066428107,0.070426508,0.070426508,0.066428107,0.070426508
"49",32053,"Da Lat, Vietnam",557,11.92321,108.4671,"Asia",0.059927463,0.059927463,0.059927463,0.059927463,0.091030664,0.059927463,0.059927463,0.059927463,0.059927463,0.059927463,0.059927463,0.070332939
"50",32456,"Denizli, Turkey",557,37.87642,29.14919,"Europe",0.062170976,0.062170976,0.062170976,0.062170976,0.062170976,0.062170976,0.062170976,0.062170976,0.062170976,0.062170976,0.062170976,0.085082523
"51",33386,"Durban, South Africa",557,-29.84922,30.99178,"Africa",0.059101673,0.059101673,0.059101673,0.083108838,0.071259792,0.059101673,0.059101673,0.059101673,0.059316528,0.059101673,0.060616035,0.092221232
"52",33944,"Kampala, Uganda",557,0.30793,32.57166,"Africa",0.060487022,0.060487022,0.060487022,0.060487022,0.067267134,0.060487022,0.060487022,0.060487022,0.060487022,0.060487022,0.060487022,0.083879781
"53",34223,"Edinburgh, Scotland, United Kingdom",557,55.94121,-3.224316,"Europe",0.049545082,0.049545082,0.049545082,0.056703752,0.07935308,0.054000763,0.049545082,0.049656712,0.050171678,0.050015029,0.049545082,0.079315273
"54",35122,"El Paso (and vicinity), Texas, United States of America",464,31.78105,-106.404565,"North America",0.061834149,0.060812536,0.059237483,0.060981879,0.064016912,0.059237483,0.059237483,0.059237483,0.059237483,0.059237483,0.059237483,0.105772815
"55",36331,"El Salvador, Chile",557,-26.14895,-69.62051,"South America",0.066026173,0.066026173,0.057188432,0.057188432,0.068611046,0.057188432,0.057188432,0.057188432,0.071680607,0.064803508,0.057188432,0.080518348
"56",36703,"New Bedford, Massachusetts, United States of America",557,41.66583,-70.93975,"North America",0.062924307,0.062924307,0.062924307,0.062924307,0.065711764,0.062924307,0.062924307,0.062924307,0.064318035,0.062924307,0.062924307,0.076731549
"57",37044,"Fajardo, Puerto Rico",557,18.32608,-65.65771,"South America",0.047177831,0.050795714,0.047177831,0.047177831,0.104175216,0.04915002,0.047177831,0.047177831,0.047177831,0.047177831,0.047177831,0.092764908
"58",37168,"Fresno, California, United States of America",557,36.70835,-119.8372,"North America",0.083124576,0.065520717,0.058115453,0.063085247,0.067036869,0.057807305,0.057807305,0.057807305,0.059348042,0.058115453,0.07536666,0.121485359
"59",37881,"Flagstaff, Arizona, United States of America",557,35.32666,-111.5108,"North America",0.054223454,0.054237722,0.065270377,0.054614386,0.065426014,0.062245757,0.054016062,0.05481908,0.095889865,0.058511835,0.054306216,0.084189912
"60",38718,"Freeport, Grand Bahama Island, Bahamas",557,26.54691,-78.62624,"South America",0.051296612,0.056137069,0.051296612,0.051296612,0.059227452,0.051296612,0.051296612,0.051436321,0.051296612,0.051296612,0.051326018,0.082204144
"61",39896,"Great Bend (and vicinity), Kansas, United States of America",464,38.36187,-98.783956,"North America",0.062099464,0.070830739,0.062099464,0.062099464,0.089147113,0.062099464,0.062099464,0.062099464,0.062099464,0.062099464,0.070830739,0.078653066
"62",41384,"Grand Junction (and vicinity), Colorado, United States of America",464,39.112646,-108.54066,"North America",0.057241073,0.056157853,0.058584743,0.060592139,0.072056519,0.058453018,0.056157853,0.056847895,0.060535457,0.058584743,0.058688277,0.08543254
"63",42810,"George, South Africa",557,-33.98348,22.4279,"Africa",0.065349279,0.065349279,0.065349279,0.065349279,0.072442425,0.065349279,0.065349279,0.065349279,0.065349279,0.065349279,0.065349279,0.065349279
"64",43399,"Gunnison, Colorado, United States of America",557,38.48177,-107.0868,"North America",0.063904389,0.063904389,0.064920649,0.063904389,0.07000195,0.063904389,0.063904389,0.063904389,0.112423233,0.093521921,0.063904389,0.076083359
"65",46065,"Hluhluwe, South Africa",557,-27.91931,32.21917,"Africa",0.066161025,0.066161025,0.066161025,0.066161025,0.068701675,0.066161025,0.066161025,0.066161025,0.066161025,0.066161025,0.066161025,0.066161025
"66",46902,"Princeville, Hawaii, United States of America",557,22.20893,-159.4733,"North America",0.057890646,0.057890646,0.057890646,0.057890646,0.12025406,0.057890646,0.057890646,0.057892114,0.057890646,0.057890646,0.057890646,0.064789259
"67",47088,"Harlingen, Texas, United States of America",557,26.18563,-97.72042,"North America",0.087233394,0.059626892,0.059626892,0.087233394,0.099822277,0.059626892,0.059626892,0.065765285,0.059626892,0.059626892,0.087233394,0.104641086
"68",47863,"Honningsvag, Nordkapp, Norway",557,70.98721,25.98217,"Europe",0.066757269,0.066757269,0.066757269,0.066757269,0.066757269,0.066757269,0.066757269,0.066757269,0.068159007,0.066757269,0.066757269,0.066757269
"69",47925,"Havre, Montana, United States of America",557,48.37663,-109.6558,"North America",0.068992965,0.060831661,0.066650971,0.060831661,0.061737376,0.060831661,0.060831661,0.060831661,0.074812275,0.068992965,0.060831661,0.087127003
"70",48514,"Idaho Falls (and vicinity), Idaho, United States of America",464,43.497752,-112.04716,"North America",0.055887196,0.055887196,0.057582224,0.072408772,0.09193892,0.055887196,0.055664862,0.055685279,0.08302611,0.057582224,0.055664862,0.104270058
"71",50467,"Iquitos (and vicinity), Peru",464,-3.752397,-73.246713,"South America",0.057048754,0.057048754,0.057048754,0.069018341,0.073803392,0.057048754,0.057048754,0.057048754,0.057048754,0.057048754,0.057048754,0.078577507
"72",50653,"Kirksville, Missouri, United States of America",557,40.15751,-92.59195,"North America",0.072099649,0.062640597,0.062640597,0.062640597,0.063599278,0.062640597,0.062640597,0.062640597,0.062640597,0.062640597,0.072099649,0.074017011
"73",51056,"Hilo, Hawaii, United States of America",557,19.71103,-155.2187,"North America",0.049688077,0.049688077,0.049688077,0.049688077,0.055349525,0.049688077,0.049688077,0.054506313,0.05366668,0.049688077,0.049688077,0.058700463
"74",51180,"Ivalo, Finland",557,68.65356,27.54374,"Europe",0.066047809,0.066047809,0.068656392,0.066047809,0.066047809,0.066047809,0.066047809,0.066047809,0.068656392,0.068656392,0.066047809,0.066047809
"75",51242,"Ironwood (and vicinity), Michigan, United States of America",464,46.46336,-90.17084,"North America",0.065559932,0.065559932,0.066850421,0.065559932,0.06814091,0.065559932,0.065559932,0.065559932,0.100134013,0.066850421,0.065559932,0.065559932
"76",53629,"Kilimanjaro, Moshi, Tanzania",557,-3.128317,37.33981,"Africa",0.065578425,0.065578425,0.065578425,0.065578425,0.066728909,0.065578425,0.065578425,0.065578425,0.065578425,0.065578425,0.065578425,0.065578425
"77",53660,"Jerusalem, Israel",557,31.77991,35.20602,"Europe",0.057458074,0.061634412,0.057458074,0.057458074,0.057699793,0.057458074,0.057458074,0.058022204,0.057458074,0.057458074,0.057458074,0.074137476
"78",53877,"Syros Island, Greece",464,37.42341,24.91609,"Europe",0.065371783,0.065371783,0.065371783,0.065371783,0.065371783,0.065371783,0.065371783,0.065371783,0.065371783,0.065371783,0.065371783,0.066047413
"79",53908,"Santorini Island, Greece",464,36.419936,25.430659,"Europe",0.05578608,0.05578608,0.05578608,0.05578608,0.055897335,0.05578608,0.05578608,0.05578608,0.055869521,0.05578608,0.05578608,0.070430683
"80",53939,"Astypalaia Island, Greece",464,36.55911,26.31314,"Europe",0.065988578,0.065988578,0.065988578,0.065988578,0.065988578,0.065988578,0.065988578,0.065988578,0.065988578,0.065988578,0.065988578,0.070129365
"81",54652,"Kalbarri, Western Australia, Australia",557,-27.69008,114.201,"Australia",0.065846732,0.065846732,0.065846732,0.065846732,0.06836119,0.065846732,0.065846732,0.065846732,0.065846732,0.065846732,0.065846732,0.067103961
"82",55179,"Kendari, Indonesia",557,-3.985,122.549,"Asia",0.066769625,0.066769625,0.066769625,0.066769625,0.066769625,0.066769625,0.066769625,0.066769625,0.066769625,0.066769625,0.066769625,0.069621065
"83",56264,"Nanchang, China",557,28.65184,116.0101,"Asia",0.065779813,0.065779813,0.065779813,0.065779813,0.066276559,0.065779813,0.065779813,0.065779813,0.065779813,0.065779813,0.065779813,0.077204978
"84",56481,"Niigata, Japan",557,37.84869,139.0167,"Asia",0.065965861,0.065965861,0.065965861,0.065965861,0.065965861,0.065965861,0.065965861,0.065965861,0.065965861,0.065965861,0.065965861,0.065965861
"85",57969,"Kostroma, Russia",557,57.78633,40.95428,"Europe",0.065850658,0.065850658,0.068267868,0.065850658,0.065850658,0.065850658,0.065850658,0.065850658,0.065850658,0.065850658,0.065850658,0.065850658
"86",58000,"Khamis Mushait, Saudi Arabia",557,18.29017,42.72308,"Asia",0.066970688,0.066970688,0.066970688,0.066970688,0.066970688,0.066970688,0.066970688,0.066970688,0.066970688,0.066970688,0.066970688,0.070023191
"87",58341,"Kununurra, Western Australia, Australia",557,-15.56053,128.8505,"Australia",0.063715412,0.063715412,0.063715412,0.063715412,0.067071867,0.063715412,0.063715412,0.063715412,0.063715412,0.063715412,0.063715412,0.063715412
"88",59426,"Krasnodar, Russia",557,45.06319,38.97216,"Europe",0.06497982,0.06497982,0.06497982,0.06497982,0.06497982,0.06497982,0.06497982,0.06497982,0.06497982,0.06497982,0.06497982,0.06875707
"89",59736,"Kassel, Germany",557,51.31094,9.459151,"Europe",0.064282359,0.064282359,0.066043387,0.064282359,0.06868493,0.064282359,0.064282359,0.064282359,0.066923902,0.065162873,0.064282359,0.070445959
"90",60356,"Katowice, Poland",557,50.23679,19.01677,"Europe",0.064657026,0.064657026,0.064657026,0.064657026,0.067197676,0.064657026,0.064657026,0.064657026,0.065503909,0.064657026,0.064657026,0.084666522
"91",62433,"Lawton, Oklahoma, United States of America",557,34.65826,-98.43703,"North America",0.06180355,0.06180355,0.06180355,0.06180355,0.065341703,0.06180355,0.06180355,0.06180355,0.06180355,0.06180355,0.06180355,0.088372142
"92",62557,"Lubbock, Texas, United States of America",557,33.59001,-101.8626,"North America",0.071348086,0.062179035,0.061196067,0.076596814,0.07956437,0.061196067,0.061196067,0.061583224,0.061622259,0.061196067,0.061196067,0.110635896
"93",64231,"Lahore, Pakistan",557,31.52982,74.35329,"Asia",0.06393429,0.06393429,0.06393429,0.06393429,0.06393429,0.06393429,0.06393429,0.070689729,0.06393429,0.06393429,0.06393429,0.071654049
"94",65905,"Liverpool, England, United Kingdom",557,53.45375,-2.936515,"Europe",0.054137885,0.054137885,0.054137885,0.106086086,0.067832112,0.054137885,0.054137885,0.054315378,0.054137885,0.054137885,0.054137885,0.139935515
"95",65998,"Luang Prabang, Laos",557,19.87801,102.1461,"Asia",0.059541535,0.059541535,0.059541535,0.059541535,0.062185639,0.059541535,0.059541535,0.059541535,0.059541535,0.059541535,0.059541535,0.061473579
"96",66432,"La Serena (and vicinity), Chile",464,-29.930496,-71.274738,"South America",0.066313313,0.066313313,0.066313313,0.066313313,0.068500779,0.066313313,0.066313313,0.066313313,0.067407046,0.067407046,0.066313313,0.068500779
"97",67114,"Lusaka, Zambia",557,-15.40669,28.33163,"Africa",0.061219003,0.061219003,0.061219003,0.061219003,0.064889177,0.061219003,0.061219003,0.061219003,0.061219003,0.061219003,0.061219003,0.08364456
"98",67734,"Luxor, Egypt",557,25.68963,32.61804,"Africa",0.059840109,0.059840109,0.059840109,0.06385271,0.068399382,0.059840109,0.059840109,0.059840109,0.059840109,0.059840109,0.059840109,0.068814691
"99",67796,"Luoyang, China",557,34.28349,111.9959,"Asia",0.065924341,0.065924341,0.065924341,0.065924341,0.065924341,0.065924341,0.065924341,0.065924341,0.065924341,0.065924341,0.065924341,0.075561824
"100",69346,"Machala, Ecuador",557,-3.249661,-79.95928,"South America",0.066652995,0.066652995,0.066652995,0.066652995,0.066652995,0.066652995,0.066652995,0.066652995,0.066652995,0.066652995,0.066652995,0.069666859
"101",69439,"Macon (and vicinity), Georgia, United States of America",464,32.875856,-83.6892,"North America",0.065554019,0.063378753,0.06334653,0.063447774,0.07131224,0.06334653,0.06334653,0.06334653,0.06334653,0.06334653,0.06334653,0.093758947
"102",69532,"Montlucon, France",557,46.33879,2.603488,"Europe",0.06668242,0.06668242,0.06668242,0.06668242,0.06812563,0.06668242,0.06668242,0.06668242,0.06668242,0.06668242,0.06668242,0.06812563
"103",70741,"Mount Gambier, South Australia, Australia",557,-37.83,140.7895,"Australia",0.063568267,0.083123838,0.063568267,0.063568267,0.068446316,0.063568267,0.063568267,0.063568267,0.063568267,0.063568267,0.063568267,0.084099448
"104",71206,"Manhattan (and vicinity), Kansas, United States of America",464,39.18027,-96.563237,"North America",0.064532266,0.064532266,0.064532266,0.07281666,0.06937801,0.064532266,0.064532266,0.064532266,0.064532266,0.064532266,0.066477163,0.094283798
"105",71485,"Milan, Italy",557,45.46833,9.173051,"Europe",0.054152876,0.054152876,0.054152876,0.072848432,0.055228412,0.054152876,0.054152876,0.054220577,0.054671162,0.054209483,0.060358081,0.093756172
"106",72198,"Milwaukee, Wisconsin, United States of America",557,43.06527,-87.95989,"North America",0.057005771,0.074212103,0.052484307,0.052173782,0.060857078,0.072469332,0.05175624,0.052276643,0.052120274,0.05175624,0.072479059,0.115185353
"107",72601,"Manokwari, Indonesia",557,-0.861885,134.079,"Asia",0.0625,0.0625,0.0625,0.0625,0.0625,0.0625,0.0625,0.0625,0.0625,0.0625,0.0625,0.0625
"108",72911,"Morelia (and vicinity), Michoacan, Mexico",464,19.702885,-101.193266,"South America",0.062910847,0.067549181,0.062910847,0.062910847,0.071374317,0.062910847,0.062910847,0.062910847,0.063184071,0.062910847,0.067549181,0.078299756
"109",73035,"Monroe (and vicinity), Louisiana, United States of America",464,32.502362,-92.08289,"North America",0.061737847,0.062413646,0.061737847,0.089772739,0.089788947,0.061737847,0.061737847,0.061737847,0.061737847,0.061737847,0.061737847,0.101211904
"110",75298,"Missoula, Montana, United States of America",557,46.92574,-114.003,"North America",0.056439253,0.056442634,0.063737979,0.057420161,0.063737979,0.056439253,0.056439253,0.057667252,0.101787576,0.059726158,0.056439253,0.077462897
"111",76104,"Maun, Botswana",557,-19.98787,23.42274,"Africa",0.065198172,0.065198172,0.065198172,0.065198172,0.065198172,0.065198172,0.065198172,0.065198172,0.065198172,0.065198172,0.065198172,0.105517909
"112",76135,"Munich, Germany",557,48.15316,11.54726,"Europe",0.054625597,0.061445276,0.054872963,0.08174738,0.059943957,0.063793276,0.054625597,0.054625597,0.064164324,0.054625597,0.054737224,0.098879677
"113",77344,"Myrtle Beach, South Carolina, United States of America",557,33.72546,-78.89613,"North America",0.052335975,0.052091453,0.050766423,0.05109931,0.097904066,0.050766424,0.050766423,0.05185882,0.050766423,0.050766423,0.060115282,0.09053495
"114",77995,"Nagpur, India",557,21.1245,79.0875,"Asia",0.065781367,0.065781367,0.065781367,0.065781367,0.066921098,0.065781367,0.065781367,0.065781367,0.065781367,0.065781367,0.065781367,0.068060829
"115",78150,"Naples, Italy",557,40.85086,14.23781,"Europe",0.059871996,0.059871996,0.059871996,0.060299416,0.060513507,0.059871996,0.059871996,0.060772932,0.060000298,0.059871996,0.059871996,0.067218104
"116",79669,"Nanjing (prefecture), China",464,32.043892,118.778867,"Asia",0.064461561,0.064461561,0.064461561,0.064461561,0.066705374,0.064461561,0.064461561,0.064461561,0.064461561,0.064461561,0.064461561,0.082771398
"117",79855,"Nuevo Laredo, Tamaulipas, Mexico",557,27.44953,-99.54123,"South America",0.067343477,0.062637782,0.062637782,0.062637782,0.06343358,0.062637782,0.062637782,0.062637782,0.062637782,0.062637782,0.062637782,0.071467445
"118",79917,"Norfolk Island (all)",464,-29.041054,167.959123,"Australia",0.064016876,0.064016876,0.064016876,0.064016876,0.073625154,0.064016876,0.064016876,0.064016876,0.064016876,0.064016876,0.064016876,0.066973269
"119",80196,"Nan, Thailand",557,18.79328,100.7743,"Asia",0.065368705,0.065368705,0.065368705,0.065368705,0.068308152,0.065368705,0.065368705,0.065368705,0.065368705,0.065368705,0.065368705,0.065368705
"120",80258,"Nosara, Costa Rica",557,9.960187,-85.67142,"South America",0.062688085,0.062688085,0.062688085,0.062688085,0.062688085,0.062688085,0.062688085,0.062688085,0.062688085,0.062688085,0.062688085,0.078617679
"121",80475,"Novokuznetsk, Russia",557,53.79415,87.18195,"Europe",0.0669371,0.0669371,0.0669371,0.0669371,0.0669371,0.075423938,0.0669371,0.0669371,0.0669371,0.0669371,0.0669371,0.0669371
"122",80785,"Nakhon Si Thammarat, Thailand",557,8.449618,99.93372,"Asia",0.06562902,0.06562902,0.06562902,0.06562902,0.06562902,0.06562902,0.06562902,0.06562902,0.06562902,0.06562902,0.06562902,0.06562902
"123",81560,"Nyaung-U, Myanmar",557,21.19927,94.91461,"Asia",0.064679018,0.064679018,0.064679018,0.064679018,0.066088858,0.064679018,0.064679018,0.064679018,0.064679018,0.064679018,0.064679018,0.064679018
"124",81684,"Oaxaca, Oaxaca, Mexico",557,17.06267,-96.71957,"South America",0.0603483,0.0603483,0.0603483,0.0603483,0.062010921,0.0603483,0.0603483,0.0603483,0.0603483,0.0603483,0.0603483,0.063237042
"125",81839,"Ocho Rios, Jamaica",557,18.41611,-77.11572,"South America",0.048640409,0.050383021,0.048640409,0.048640409,0.059007208,0.048640409,0.048640409,0.049678314,0.048640409,0.048640409,0.050172264,0.087177229
"126",81963,"Oak Harbor, Washington, United States of America",557,48.31589,-122.6376,"North America",0.061753003,0.061753003,0.061753003,0.061753003,0.063564434,0.061753003,0.061753003,0.061753003,0.061753003,0.061753003,0.061753003,0.06836165
"127",82893,"Omaha (and vicinity), Nebraska, United States of America",464,41.25235,-96.02186,"North America",0.069437611,0.075778474,0.056060819,0.058470106,0.065234343,0.058014867,0.055861869,0.056462673,0.069300878,0.055861869,0.059528149,0.116283031
"128",83482,"Norfolk, Virginia, United States of America",557,36.90712,-76.2547,"North America",0.061574235,0.061189867,0.061042807,0.061896504,0.072668067,0.061042807,0.061042807,0.061042807,0.061042807,0.061042807,0.061042807,0.089076442
"129",83792,"Oshkosh, Wisconsin, United States of America",557,44.00908,-88.58203,"North America",0.085490785,0.059500837,0.059500837,0.070150684,0.061032935,0.059500837,0.059500837,0.059500837,0.06604243,0.059500837,0.059500837,0.108253285
"130",84505,"Oviedo (and vicinity), Spain",464,43.363059,-5.85306,"Europe",0.06509042,0.06509042,0.066463229,0.06509042,0.069208847,0.06509042,0.06509042,0.06509042,0.068293641,0.066005626,0.06509042,0.071391938
"131",85001,"Puebla (and vicinity), Puebla, Mexico",464,19.044319,-98.2201,"South America",0.064489865,0.064489865,0.064489865,0.064489865,0.068803138,0.064489865,0.064489865,0.064489865,0.064873359,0.064489865,0.064489865,0.075044731
"132",85404,"Pucallpa, Peru",557,-8.361413,-74.57972,"South America",0.062111801,0.062111801,0.062111801,0.062111801,0.062111801,0.062111801,0.062111801,0.062111801,0.062111801,0.062111801,0.062111801,0.062111801
"133",86334,"Ponta Grossa, Brazil",557,-25.13716,-50.06645,"South America",0.066752652,0.066752652,0.066752652,0.066752652,0.066752652,0.066752652,0.066752652,0.066752652,0.066752652,0.066752652,0.066752652,0.069587119
"134",86365,"Port Harcourt, Nigeria",557,4.817473,7.03522,"Africa",0.066485696,0.066485696,0.066485696,0.066485696,0.069680924,0.066485696,0.066485696,0.066485696,0.066485696,0.066485696,0.066485696,0.075006305
"135",87698,"Pemba Island, Tanzania",557,-5.176836,39.75418,"Africa",0.066643658,0.066643658,0.066643658,0.066643658,0.066643658,0.066643658,0.066643658,0.066643658,0.066643658,0.066643658,0.066643658,0.066643658
"136",88008,"Pamplona (and vicinity), Spain",464,42.81396,-1.645061,"Europe",0.064588086,0.064588086,0.064588086,0.064588086,0.068692214,0.064588086,0.064588086,0.064588086,0.064588086,0.064588086,0.064588086,0.072189318
"137",88070,"Phnom Penh, Cambodia",557,11.55329,104.8704,"Asia",0.059222782,0.059222782,0.059222782,0.059222782,0.065543894,0.059222782,0.059222782,0.059222782,0.059749541,0.059222782,0.059222782,0.071843588
"138",88907,"Puerto Princesa, Philippines",557,9.973703,118.821,"Asia",0.062871548,0.062871548,0.062871548,0.062871548,0.064476169,0.062871548,0.062871548,0.062871548,0.062871548,0.062871548,0.062871548,0.066918618
"139",89279,"Pretoria, South Africa",557,-25.7472,28.24784,"Africa",0.064615502,0.064615502,0.064615502,0.064615502,0.088292157,0.064615502,0.064615502,0.064615502,0.064615502,0.064615502,0.064615502,0.071482332
"140",92689,"Yangon, Myanmar",557,16.8687,96.18923,"Asia",0.06128479,0.06128479,0.06128479,0.06128479,0.067253994,0.06128479,0.06128479,0.06128479,0.06128479,0.06128479,0.06128479,0.07730283
"141",92782,"Rhodes Island, Greece",464,36.40009,28.187528,"Europe",0.058500351,0.058715252,0.058500351,0.058500351,0.065875453,0.058500351,0.058500351,0.058500351,0.058820535,0.058500351,0.058500351,0.065940632
"142",93433,"Rimini, Italy",557,44.04332,12.53376,"Europe",0.063654843,0.063654843,0.063654843,0.063654843,0.067485772,0.063654843,0.063654843,0.063654843,0.063654843,0.063654843,0.063654843,0.067712394
"143",93774,"Rochester, New York, United States of America",557,43.17537,-77.64826,"North America",0.070242956,0.070221834,0.057176352,0.070221834,0.080604108,0.073398796,0.05612956,0.05612956,0.057699747,0.057176352,0.07255792,0.118635917
"144",93991,"Rostov-on-Don, Russia",557,47.23912,39.67801,"Europe",0.065822947,0.065822947,0.065822947,0.065822947,0.06963247,0.065822947,0.065822947,0.065822947,0.065822947,0.065822947,0.065822947,0.067727709
"145",95324,"San Salvador, El Salvador",557,13.64538,-89.17981,"South America",0.062103563,0.062103563,0.062103563,0.062103563,0.063425528,0.062103563,0.062103563,0.062103563,0.062103563,0.062103563,0.062103563,0.078644411
"146",95789,"San Luis Obispo, California, United States of America",557,35.26423,-120.7014,"North America",0.054786686,0.05548933,0.054786686,0.073668357,0.0689897,0.054786686,0.054786686,0.055001953,0.054786686,0.054786686,0.055375975,0.091303316
"147",97742,"Shenyang, China",557,41.96069,123.1161,"Asia",0.062489505,0.062489505,0.062489505,0.062489505,0.067963656,0.062489505,0.062489505,0.062489505,0.063428603,0.062744062,0.062489505,0.070126202
"148",97959,"Sheridan (and vicinity), Wyoming, United States of America",464,44.80386,-106.93957,"North America",0.06013446,0.06013446,0.061890901,0.06013446,0.064390643,0.06013446,0.06013446,0.06013446,0.075286475,0.060719941,0.061334915,0.072240946
"149",99292,"Salta (and vicinity), Argentina",464,-24.788232,-65.409095,"South America",0.065790605,0.065790605,0.065790605,0.065790605,0.066679941,0.065790605,0.065790605,0.065790605,0.06608705,0.065790605,0.065790605,0.071314177
"150",99323,"Salt Lake City, Utah, United States of America",557,40.7424,-111.8529,"North America",0.068423709,0.069754016,0.055850701,0.068682623,0.062137718,0.06859884,0.050690182,0.050797088,0.094501296,0.076315678,0.05110743,0.113782312
"151",99416,"Saranac Lake, New York, United States of America",557,44.34541,-74.25569,"North America",0.064108854,0.057530866,0.062452744,0.061781829,0.061465187,0.062649536,0.057530866,0.057530866,0.125897631,0.057530866,0.057530866,0.068359817
"152",100005,"Ile Sainte-Marie, Madagascar",557,-16.91427,49.89516,"Africa",0.051807153,0.051807153,0.051807153,0.051807153,0.051807153,0.051807153,0.051807153,0.051807153,0.051807153,0.051807153,0.051807153,0.105948572
"153",100656,"Sorong, Indonesia",557,-0.865999,131.3223,"Asia",0.064935065,0.064935065,0.064935065,0.064935065,0.064935065,0.064935065,0.064935065,0.064935065,0.064935065,0.064935065,0.064935065,0.064935065
"154",100904,"Saipan, Northern Mariana Islands",464,15.214391,145.71739,"Australia",0.0647267,0.0647267,0.0647267,0.0647267,0.076687181,0.0647267,0.0647267,0.0647267,0.0647267,0.0647267,0.0647267,0.073482825
"155",101028,"Split, Croatia",557,43.51387,16.50192,"Europe",0.056578067,0.056578067,0.056854516,0.060391549,0.058927886,0.056578067,0.056578067,0.060698466,0.056854516,0.056716292,0.065027349,0.094572468
"156",101245,"Semarang, Indonesia",557,-7.01115,110.3905,"Asia",0.062757659,0.062757659,0.062757659,0.062757659,0.06879166,0.062757659,0.062757659,0.062757659,0.062757659,0.062757659,0.062757659,0.092024752
"157",102485,"Suva, Fiji",557,-18.12069,178.4536,"Australia",0.064342925,0.064342925,0.064342925,0.064342925,0.066375445,0.078394772,0.064342925,0.064342925,0.064342925,0.064342925,0.078394772,0.080427293
"158",103694,"Sydney, New South Wales, Australia",557,-33.867,151.2108,"Australia",0.046168267,0.046168267,0.046168267,0.046384377,0.072632381,0.046168267,0.046168267,0.04653381,0.064381005,0.046168267,0.046409307,0.088194218
"159",104655,"Tartu, Estonia",557,58.37468,26.72553,"Europe",0.065127124,0.065127124,0.065127124,0.065127124,0.065127124,0.065127124,0.065127124,0.065127124,0.067518324,0.065127124,0.065127124,0.08017866
"160",106670,"Taif, Saudi Arabia",557,21.39462,40.51751,"Asia",0.066387699,0.066387699,0.066387699,0.066387699,0.067577467,0.066387699,0.066387699,0.066387699,0.066387699,0.066387699,0.066387699,0.069957003
"161",106732,"Tijuana (and vicinity), Baja California Norte, Mexico",464,32.519478,-117.012133,"South America",0.058423686,0.063891565,0.058423686,0.063891565,0.082883785,0.058423686,0.058423686,0.058423686,0.058423686,0.058423686,0.059532251,0.079094581
"162",107290,"Tok, Alaska, United States of America",557,63.32952,-142.996,"North America",0.066395101,0.066395101,0.066395101,0.066395101,0.066395101,0.066395101,0.066395101,0.066395101,0.066395101,0.066395101,0.066395101,0.066395101
"163",107755,"Tlemcen, Algeria",557,34.87365,-1.302338,"Africa",0.062893082,0.062893082,0.062893082,0.062893082,0.062893082,0.062893082,0.062893082,0.062893082,0.062893082,0.062893082,0.062893082,0.062893082
"164",108189,"Sao Tome Island, Sao Tome and Principe",557,0.220876,6.619432,"Africa",0.065897565,0.065897565,0.065897565,0.065897565,0.065897565,0.065897565,0.065897565,0.065897565,0.065897565,0.065897565,0.065897565,0.065897565
"165",108623,"Antananarivo, Madagascar",557,-18.90039,47.51458,"Africa",0.061968003,0.061968003,0.061968003,0.066441481,0.063837977,0.061968003,0.061968003,0.061968003,0.061968003,0.061968003,0.075388438,0.079535379
"166",108685,"Tioman Island, Malaysia",557,2.789838,104.1765,"Asia",0.057483177,0.057483177,0.057483177,0.057483177,0.073346378,0.057483177,0.057483177,0.057483177,0.057483177,0.057483177,0.057483177,0.058215027
"167",110049,"Timisoara, Romania",557,45.73935,21.28229,"Europe",0.062070076,0.062070076,0.062070076,0.062070076,0.062739196,0.062070076,0.062070076,0.062070076,0.062070076,0.062070076,0.062070076,0.066084797
"168",110266,"Tottori, Japan",557,35.43969,134.1547,"Asia",0.064805356,0.064805356,0.064805356,0.064805356,0.066310926,0.064805356,0.064805356,0.064805356,0.066310926,0.064805356,0.064805356,0.064805356
"169",110793,"Tunis, Tunisia",557,36.80352,10.17164,"Africa",0.063874251,0.063874251,0.063874251,0.063893401,0.069681452,0.063874251,0.063874251,0.063874251,0.064600151,0.064600151,0.06387461,0.071459403
"170",110824,"Taupo, New Zealand",557,-38.69542,176.0834,"Australia",0.057780816,0.057780816,0.05847768,0.059877172,0.066172816,0.057780816,0.057780816,0.057780816,0.063355729,0.059871408,0.057780816,0.094281911
"171",111258,"Tawau, Malaysia",557,4.332791,117.9588,"Asia",0.066506436,0.066506436,0.066506436,0.066506436,0.066506436,0.066506436,0.066506436,0.066506436,0.066506436,0.066506436,0.066506436,0.067884416
"172",111878,"Columbus (and vicinity), Mississippi, United States of America",464,33.516849,-88.427,"North America",0.066733771,0.061373559,0.061373559,0.07444824,0.064354185,0.061373559,0.061373559,0.061373559,0.072097459,0.061373559,0.061373559,0.090463841
"173",114606,"Valdez, Alaska, United States of America",557,61.1273,-146.3214,"North America",0.05921159,0.05921159,0.060229816,0.05921159,0.068157923,0.05921159,0.05921159,0.05921159,0.06534023,0.05921159,0.05921159,0.085399963
"174",114978,"Spanish Town, Virgin Gorda, British Virgin Islands",557,18.46826,-64.41988,"South America",0.062872644,0.062872644,0.062872644,0.062872644,0.062872644,0.062872644,0.062872644,0.062872644,0.062872644,0.062872644,0.062872644,0.087906868
"175",116125,"Vientiane, Laos",557,17.98119,102.609,"Asia",0.060804541,0.060804541,0.060804541,0.060804541,0.062536242,0.060804541,0.060804541,0.060804541,0.060804541,0.060804541,0.060804541,0.070424333
"176",116404,"Sao Vicente, Cape Verde",557,16.8436,-24.9848,"Africa",0.065555904,0.065555904,0.065555904,0.065555904,0.065555904,0.065555904,0.065555904,0.065555904,0.065555904,0.065555904,0.065555904,0.070317809
"177",118512,"Worland (and vicinity), Wyoming, United States of America",464,44.02078,-107.95581,"North America",0.063903721,0.063903721,0.063903721,0.063903721,0.064819556,0.063903721,0.063903721,0.063903721,0.063903721,0.063903721,0.063903721,0.067754442
"178",121643,"Deer Lake, Newfoundland and Labrador, Canada",557,49.16787,-57.45962,"North America",0.06416735,0.06416735,0.06561056,0.06416735,0.06561056,0.06416735,0.06416735,0.06416735,0.06561056,0.06561056,0.06416735,0.06561056
"179",122976,"Hamilton (and vicinity), Ontario, Canada",464,43.25761,-79.8723,"North America",0.062345908,0.061174606,0.063190771,0.062628063,0.066453752,0.066122027,0.060632692,0.061363933,0.062608665,0.060632692,0.060632692,0.099168575
"180",123255,"Yichang, China",557,30.74599,111.1464,"Asia",0.064135926,0.064135926,0.064135926,0.064135926,0.064135926,0.064135926,0.064135926,0.064135926,0.064135926,0.064135926,0.064135926,0.088105245
"181",123472,"Kamloops (and vicinity), British Columbia, Canada",464,50.67158,-120.352141,"North America",0.059235909,0.059235909,0.067155217,0.059235909,0.072832574,0.061241941,0.059235909,0.059235909,0.084660156,0.065230924,0.059627929,0.079917649
"182",123627,"Yankton, South Dakota, United States of America",557,42.91335,-97.45016,"North America",0.062374326,0.062374326,0.062374326,0.062374326,0.069230277,0.062374326,0.062374326,0.062374326,0.06827717,0.062374326,0.062374326,0.06428054
"183",124402,"Yanbu, Saudi Arabia",557,24.39513,37.97019,"Asia",0.065188383,0.065188383,0.065188383,0.065188383,0.067734856,0.065188383,0.065188383,0.065188383,0.065188383,0.065188383,0.065188383,0.072827802
"184",124681,"Yantai, China",557,37.43834,120.8135,"Asia",0.065380821,0.065380821,0.065380821,0.065380821,0.067954989,0.065380821,0.065380821,0.065380821,0.065380821,0.065380821,0.065380821,0.075677494
"185",124929,"Prince Albert, Saskatchewan, Canada",557,53.20098,-105.7214,"North America",0.064759763,0.064759763,0.065938036,0.064759763,0.069472854,0.064759763,0.064759763,0.064759763,0.067116309,0.065938036,0.064759763,0.075191266
"186",125797,"Thunder Bay, Ontario, Canada",557,48.42465,-89.29774,"North America",0.057763348,0.057763348,0.059507331,0.057763348,0.07164413,0.05936524,0.057763348,0.057763348,0.071053631,0.058926003,0.057763348,0.07009294
"187",126138,"Red Lake, Ontario, Canada",557,51.05653,-93.72749,"North America",0.066545753,0.066545753,0.066545753,0.066545753,0.066545753,0.066545753,0.066545753,0.066545753,0.066545753,0.066545753,0.066545753,0.066545753
"188",127223,"Bonaventure, Quebec, Canada",557,48.0562,-65.45954,"North America",0.065769711,0.065769711,0.065769711,0.065769711,0.065769711,0.065769711,0.065769711,0.065769711,0.065769711,0.065769711,0.065769711,0.065769711
"189",127781,"Medicine Hat (and vicinity), Alberta, Canada",464,50.00836,-110.66437,"North America",0.078858304,0.060454765,0.060959179,0.060454765,0.101186682,0.084953389,0.060454765,0.060454765,0.072270615,0.061968006,0.060454765,0.086527574
"190",127998,"Prince George, British Columbia, Canada",557,53.92054,-122.7537,"North America",0.057338471,0.061332937,0.08391722,0.057338471,0.085966401,0.058197327,0.057338471,0.057338471,0.103432839,0.057338471,0.057338471,0.107979045
"191",128029,"Terrace, British Columbia, Canada",557,54.50383,-128.6105,"North America",0.065561201,0.065561201,0.066879593,0.065561201,0.068197984,0.065561201,0.065561201,0.065561201,0.068197984,0.066879593,0.065561201,0.068197984
"192",128060,"London (and vicinity), Ontario, Canada",464,42.98282,-81.23937,"North America",0.061091629,0.061529942,0.061820863,0.059740672,0.068401094,0.076964821,0.059740672,0.060415665,0.062860988,0.061820863,0.060372564,0.108228529
"193",128277,"Fort Nelson, British Columbia, Canada",557,58.80358,-122.7029,"North America",0.064897472,0.064897472,0.064897472,0.064897472,0.064897472,0.064897472,0.064897472,0.064897472,0.064897472,0.064897472,0.064897472,0.070370926
"194",128649,"Yellowknife, Northwest Territories, Canada",557,62.45193,-114.3839,"North America",0.060840192,0.060840192,0.062344178,0.060840192,0.071618317,0.060840192,0.060840192,0.060840192,0.060840192,0.060840192,0.060840192,0.068128735
"195",129765,"Manzanillo (and vicinity), Colima, Mexico",464,19.105027,-104.3481,"South America",0.05922666,0.05922666,0.05922666,0.05922666,0.094513924,0.05922666,0.05922666,0.05922666,0.05922666,0.05922666,0.05922666,0.088767821
"196",130974,"Gzira, Malta",557,35.9043,14.49682,"Europe",0.061885196,0.061885196,0.061885196,0.061885196,0.062964411,0.061885196,0.061885196,0.061885196,0.061885196,0.061885196,0.061885196,0.070222661
"197",131470,"Bad Brueckenau, Germany",557,50.30716,9.774504,"Europe",0.066066232,0.066066232,0.06727367,0.066066232,0.06727367,0.066066232,0.066066232,0.066066232,0.06727367,0.06727367,0.066066232,0.068481108
"198",132493,"Ambleside, England, United Kingdom",557,54.42879,-3.027857,"Europe",0.061563115,0.061563115,0.061563115,0.067755284,0.065637857,0.061563115,0.061563115,0.061563115,0.061563115,0.061563115,0.061563115,0.076004631
"199",133361,"Vitznau, Switzerland",557,47.01501,8.488104,"Europe",0.065946409,0.065946409,0.065946409,0.065946409,0.065946409,0.065946409,0.065946409,0.065946409,0.065946409,0.065946409,0.065946409,0.065946409
"200",133454,"Puerto de Pollensa, Spain",557,39.89069,3.083159,"Europe",0.058534992,0.058534992,0.058534992,0.058534992,0.06492459,0.058534992,0.058534992,0.058534992,0.058534992,0.058534992,0.058534992,0.087136394
"201",133516,"Nervi, Genoa, Italy",774,44.38771,9.024632,"Europe",0.066321602,0.066321602,0.066321602,0.066321602,0.066321602,0.066321602,0.066321602,0.066321602,0.066321602,0.066321602,0.066321602,0.073484269
"202",133981,"Ullapool, Scotland, United Kingdom",557,57.99128,-5.178801,"Europe",0.065120172,0.065120172,0.065120172,0.065120172,0.066554892,0.065120172,0.065120172,0.065120172,0.065120172,0.065120172,0.065120172,0.066554892
"203",136337,"Peguera, Spain",774,39.53883,2.454468,"Europe",0.064179701,0.064179701,0.064179701,0.064179701,0.069036166,0.064179701,0.064179701,0.064179701,0.064719308,0.064719308,0.064179701,0.070176947
"204",137701,"Schliersee, Germany",557,47.68731,11.87512,"Europe",0.065395923,0.065395923,0.069410778,0.065395923,0.068407064,0.065395923,0.065395923,0.065395923,0.075494675,0.069410778,0.065395923,0.06740335
"205",138786,"Rize, Turkey",557,40.95048,40.56238,"Europe",0.066963968,0.066963968,0.066963968,0.066963968,0.066963968,0.066963968,0.066963968,0.066963968,0.066963968,0.066963968,0.066963968,0.068497946
"206",138972,"Meyrin, Switzerland",557,46.23224,6.079154,"Europe",0.062329811,0.062329811,0.063508084,0.062329811,0.064686357,0.062329811,0.062329811,0.062329811,0.064686357,0.063508084,0.062329811,0.078910429
"207",139003,"Montreux, Switzerland",557,46.44989,6.937726,"Europe",0.05597429,0.05597429,0.05838509,0.05597429,0.069604532,0.05597429,0.05597429,0.05597429,0.06877958,0.064255919,0.05597429,0.074766117
"208",139778,"Meudon, France",557,48.80414,2.227381,"Europe",0.066792329,0.066792329,0.066792329,0.066792329,0.069661769,0.066792329,0.066792329,0.066792329,0.066792329,0.066792329,0.066792329,0.069661769
"209",139995,"Mardin, Turkey",557,37.28683,40.79008,"Europe",0.066848256,0.066848256,0.066848256,0.066848256,0.066848256,0.066848256,0.066848256,0.066848256,0.066848256,0.066848256,0.066848256,0.068317548
"210",141483,"Barnstaple, England, United Kingdom",557,51.1021,-3.987432,"Europe",0.065271927,0.065271927,0.065271927,0.065271927,0.066473417,0.065271927,0.065271927,0.065271927,0.065271927,0.065271927,0.065271927,0.065271927
"211",141855,"Bishop's Stortford, England, United Kingdom",557,51.87519,0.204597,"Europe",0.058326089,0.058326089,0.058326089,0.058414046,0.060475009,0.058326089,0.058326089,0.058326089,0.058326089,0.058326089,0.058326089,0.103001431
"212",142010,"Borehamwood, England, United Kingdom",557,51.65841,-0.280497,"Europe",0.061699409,0.061699409,0.061699409,0.061699409,0.063101147,0.061699409,0.061699409,0.061699409,0.061699409,0.061699409,0.061699409,0.107714862
"213",142134,"Bradford-on-Avon, England, United Kingdom",557,51.36045,-2.262277,"Europe",0.064872223,0.064872223,0.064872223,0.064872223,0.066258033,0.064872223,0.064872223,0.064872223,0.064872223,0.064872223,0.064872223,0.066258033
"214",142568,"Cannock, England, United Kingdom",557,52.70093,-2.010667,"Europe",0.063612909,0.063612909,0.063612909,0.063612909,0.063612909,0.063612909,0.063612909,0.063612909,0.063612909,0.063612909,0.063612909,0.065088955
"215",142723,"Chichester, England, United Kingdom",557,50.84674,-0.796783,"Europe",0.063166287,0.063166287,0.063166287,0.063166287,0.066522743,0.063166287,0.063166287,0.063166287,0.063166287,0.063166287,0.063166287,0.06428518
"216",143374,"Dartmouth, England, United Kingdom",557,50.34466,-3.596709,"Europe",0.064949346,0.064949346,0.064949346,0.064949346,0.07817962,0.064949346,0.064949346,0.064949346,0.064949346,0.064949346,0.064949346,0.064949346
"217",143467,"Dorking, England, United Kingdom",557,51.18887,-0.350964,"Europe",0.063855412,0.063855412,0.063855412,0.063855412,0.071516844,0.063855412,0.063855412,0.063855412,0.063855412,0.063855412,0.063855412,0.074672135
"218",144428,"Hemel Hempstead, England, United Kingdom",557,51.75485,-0.484531,"Europe",0.063127805,0.063127805,0.063127805,0.063127805,0.064398131,0.063127805,0.063127805,0.063127805,0.081105261,0.064398131,0.063127805,0.084170275
"219",144924,"Alanya, Turkey",557,36.5825,32.13989,"Europe",0.065062849,0.065062849,0.065062849,0.065062849,0.065878576,0.065062849,0.065062849,0.065062849,0.065062849,0.065062849,0.065062849,0.075259439
"220",145048,"Letchworth, England, United Kingdom",557,51.97821,-0.22531,"Europe",0.065096903,0.065096903,0.065096903,0.065096903,0.066602473,0.065096903,0.065096903,0.065096903,0.065096903,0.065096903,0.065096903,0.086337164
"221",146257,"Oeiras, Portugal",557,38.71061,-9.276484,"Europe",0.063500567,0.063500567,0.063500567,0.063500567,0.067565608,0.063500567,0.063500567,0.063500567,0.063500567,0.063500567,0.063500567,0.089928397
"222",146908,"Autun, France",557,46.94528,4.311471,"Europe",0.06558013,0.06558013,0.06558013,0.06558013,0.067014851,0.06558013,0.06558013,0.06558013,0.06558013,0.06558013,0.06558013,0.06558013
"223",148148,"Chantilly, France",557,49.1762,2.481431,"Europe",0.066392618,0.066392618,0.066392618,0.066392618,0.067879828,0.066392618,0.066392618,0.066392618,0.066392618,0.066392618,0.066392618,0.066392618
"224",148954,"Fontainebleau, France",557,48.40533,2.679514,"Europe",0.065258655,0.065258655,0.065258655,0.065258655,0.080226796,0.065258655,0.065258655,0.065258655,0.065258655,0.065258655,0.065258655,0.06762664
"225",149605,"Ivry-sur-Seine, France",557,48.81237,2.38765,"Europe",0.065876652,0.065876652,0.065876652,0.065876652,0.065876652,0.065876652,0.065876652,0.065876652,0.065876652,0.065876652,0.065876652,0.067180943
"226",150008,"Slagelse, Denmark",557,55.40724,11.35737,"Europe",0.066928965,0.066928965,0.066928965,0.066928965,0.069832566,0.066928965,0.066928965,0.066928965,0.066928965,0.066928965,0.066928965,0.066928965
"227",151000,"Wantage, England, United Kingdom",557,51.58177,-1.429713,"Europe",0.064562349,0.064562349,0.064562349,0.064562349,0.065956077,0.064562349,0.064562349,0.064562349,0.064562349,0.064562349,0.064562349,0.064562349
"228",151434,"Riva del Garda, Italy",557,45.88571,10.82472,"Europe",0.064085307,0.064085307,0.064420799,0.064085307,0.066433748,0.064085307,0.064085307,0.064085307,0.065091782,0.06475629,0.064085307,0.072202489
"229",152581,"Abano Terme, Italy",557,45.3586,11.79293,"Europe",0.065854197,0.065854197,0.065854197,0.065854197,0.072233939,0.065854197,0.065854197,0.065854197,0.065854197,0.065854197,0.065854197,0.072794525
"230",153108,"Colle di Val d'Elsa, Italy",557,43.39223,11.0944,"Europe",0.065766478,0.065766478,0.065766478,0.065766478,0.071126971,0.065766478,0.065766478,0.065766478,0.065766478,0.065766478,0.065766478,0.067553309
"231",153387,"Akcakoca, Turkey",557,41.06403,31.15653,"Europe",0.066514028,0.066514028,0.066514028,0.066514028,0.066514028,0.066514028,0.066514028,0.066514028,0.066514028,0.066514028,0.066514028,0.069453475
"232",156084,"Ouranoupoli, Aristotelis, Greece",557,40.33961,23.97368,"Europe",0.065678741,0.065678741,0.065678741,0.065678741,0.066606127,0.065678741,0.065678741,0.065678741,0.065678741,0.065678741,0.065678741,0.069388284
"233",156549,"Halle an der Saale, Germany",557,51.47994,11.96808,"Europe",0.065319017,0.065319017,0.065319017,0.065319017,0.066374871,0.065319017,0.065319017,0.065319017,0.065319017,0.065319017,0.065319017,0.07059829
"234",156859,"Willingen, Germany",557,51.29128,8.655777,"Europe",0.066196608,0.066196608,0.070753455,0.066196608,0.070753455,0.066196608,0.066196608,0.066196608,0.075310301,0.070753455,0.066196608,0.068475031
"235",157231,"Zamosc, Poland",557,50.74199,23.27403,"Europe",0.066255449,0.066255449,0.066255449,0.066255449,0.066255449,0.066255449,0.066255449,0.066255449,0.066255449,0.066255449,0.066255449,0.069011409
"236",158378,"Steyr, Austria",557,48.0539,14.42135,"Europe",0.065986561,0.065986561,0.065986561,0.065986561,0.068441151,0.065986561,0.065986561,0.065986561,0.065986561,0.065986561,0.065986561,0.068441151
"237",160610,"Mechelen, Belgium",557,51.02876,4.450268,"Europe",0.065453959,0.065453959,0.065453959,0.065453959,0.066537969,0.065453959,0.065453959,0.065453959,0.065453959,0.065453959,0.065453959,0.06762198
"238",161292,"Nafplio, Greece",557,37.53139,22.91196,"Europe",0.059730542,0.059730542,0.059730542,0.059730542,0.059730542,0.059730542,0.059730542,0.059730542,0.060338457,0.059730542,0.059730542,0.065058871
"239",162036,"Viernheim, Germany",557,49.55862,8.56394,"Europe",0.066824099,0.066824099,0.066824099,0.066824099,0.066824099,0.066824099,0.066824099,0.066824099,0.066824099,0.066824099,0.066824099,0.066824099
"240",162997,"Wetzlar, Germany",557,50.56643,8.513532,"Europe",0.065969348,0.065969348,0.065969348,0.065969348,0.065969348,0.065969348,0.065969348,0.065969348,0.065969348,0.065969348,0.065969348,0.067421148
"241",164268,"Bussum, Netherlands",557,52.27033,5.165211,"Europe",0.065255194,0.065255194,0.065255194,0.065255194,0.065255194,0.065255194,0.086958153,0.065255194,0.086958153,0.065255194,0.065255194,0.086958153
"242",165415,"Nunspeet, Netherlands",557,52.37743,5.788511,"Europe",0.066578467,0.066578467,0.066578467,0.066578467,0.069238749,0.066578467,0.066578467,0.066578467,0.066578467,0.066578467,0.066578467,0.071899031
"243",166314,"Zaandam, Netherlands",557,52.44573,4.825437,"Europe",0.052619623,0.052619623,0.052619623,0.052619623,0.052619623,0.052619623,0.052619623,0.052619623,0.052619623,0.052619623,0.052619623,0.081637767
"244",166810,"Bad Duerkheim, Germany",557,49.45379,8.086325,"Europe",0.066616992,0.066616992,0.066616992,0.066616992,0.070239306,0.066616992,0.066616992,0.066616992,0.066616992,0.066616992,0.066616992,0.069031868
"245",166872,"Baden-Baden, Germany",557,48.75116,8.230616,"Europe",0.062443459,0.062443459,0.065919503,0.062443459,0.070554228,0.062443459,0.062443459,0.062443459,0.066498844,0.065340162,0.062443459,0.071368177
"246",167151,"Bad Salzuflen, Germany",557,52.0721,8.761214,"Europe",0.066610039,0.066610039,0.066610039,0.066610039,0.071587639,0.066610039,0.066610039,0.066610039,0.066610039,0.066610039,0.066610039,0.067854439
"247",167554,"Castrop-Rauxel, Germany",557,51.5704,7.314671,"Europe",0.066855145,0.066855145,0.066855145,0.066855145,0.069611105,0.066855145,0.066855145,0.066855145,0.066855145,0.066855145,0.066855145,0.068233125
"248",167864,"Ettlingen, Germany",557,48.92601,8.406245,"Europe",0.065931442,0.065931442,0.065931442,0.065931442,0.068568225,0.065931442,0.065931442,0.065931442,0.065931442,0.065931442,0.065931442,0.072745806
"249",168081,"Haan, Germany",557,51.20826,7.010632,"Europe",0.066769625,0.066769625,0.066769625,0.066769625,0.066769625,0.066769625,0.066769625,0.066769625,0.066769625,0.066769625,0.066769625,0.066769625
"250",168236,"Heidenheim an der Brenz, Germany",557,48.70977,10.18839,"Europe",0.065887985,0.065887985,0.067273794,0.065887985,0.065887985,0.065887985,0.065887985,0.065887985,0.067273794,0.065887985,0.065887985,0.067273794
"251",168484,"Karlsruhe, Germany",557,49.01182,8.411253,"Europe",0.063219212,0.063219212,0.063219212,0.063219212,0.068619265,0.063219212,0.063219212,0.063219212,0.064119221,0.063219212,0.063219212,0.066819248
"252",168546,"Kelsterbach, Germany",557,50.04915,8.518537,"Europe",0.05831637,0.05831637,0.05831637,0.05831637,0.0597427,0.05831637,0.05831637,0.05831637,0.05831637,0.05831637,0.05831637,0.084973329
"253",168639,"Constance, Germany",557,47.70446,9.159194,"Europe",0.059738461,0.059738461,0.059738461,0.059738461,0.061935781,0.059738461,0.059738461,0.059738461,0.059738461,0.059738461,0.059738461,0.061935781
"254",168794,"Landshut, Germany",557,48.54453,12.15986,"Europe",0.065689667,0.065689667,0.065689667,0.065689667,0.067052251,0.065689667,0.065689667,0.065689667,0.065689667,0.065689667,0.065689667,0.065689667
"255",169042,"Navan, Ireland",557,53.62726,-6.663124,"Europe",0.066643587,0.066643587,0.066643587,0.066643587,0.066643587,0.066643587,0.066643587,0.066643587,0.066643587,0.066643587,0.066643587,0.066643587
"256",169166,"Torquay, England, United Kingdom",557,50.47842,-3.518155,"Europe",0.062573796,0.062573796,0.062573796,0.062573796,0.070134149,0.062573796,0.062573796,0.062573796,0.062573796,0.062573796,0.062573796,0.071355173
"257",169352,"Walsall, England, United Kingdom",557,52.61361,-1.96242,"Europe",0.062411284,0.062411284,0.062411284,0.074232364,0.067147254,0.062411284,0.062411284,0.062411284,0.062411284,0.062411284,0.062411284,0.115751521
"258",170282,"York, England, United Kingdom",557,54.05331,-1.003395,"Europe",0.056981429,0.056981429,0.056981429,0.056982582,0.066668611,0.056981429,0.056981429,0.056981429,0.056981429,0.056981429,0.056981429,0.075350392
"259",170840,"Zug, Switzerland",557,47.15329,8.5179,"Europe",0.066029836,0.066029836,0.066029836,0.066029836,0.068739863,0.066029836,0.066029836,0.066029836,0.066029836,0.066029836,0.066029836,0.06738485
"260",171398,"Rambouillet, France",557,48.65314,1.826001,"Europe",0.06548756,0.06548756,0.06548756,0.06548756,0.06548756,0.06548756,0.06548756,0.06548756,0.06548756,0.06548756,0.06548756,0.066881288
"261",171553,"Rueil-Malmaison, France",557,48.86936,2.177571,"Europe",0.064710103,0.064710103,0.064710103,0.064710103,0.06971323,0.064710103,0.064710103,0.064710103,0.064710103,0.064710103,0.064710103,0.068462449
"262",171677,"Saint-Etienne-du-Rouvray, France",557,49.38165,1.090045,"Europe",0.065434054,0.065434054,0.065434054,0.065434054,0.066835792,0.065434054,0.065434054,0.065434054,0.065434054,0.065434054,0.065434054,0.065434054
"263",174281,"Chepstow, Wales, United Kingdom",557,51.66663,-2.716477,"Europe",0.058688705,0.058688705,0.058688705,0.058688705,0.230272894,0.058688705,0.058688705,0.058688705,0.058688705,0.058688705,0.058688705,0.084221111
"264",174870,"Marlborough, England, United Kingdom",557,51.39265,-1.686537,"Europe",0.065203282,0.065203282,0.065203282,0.065203282,0.065203282,0.065203282,0.065203282,0.065203282,0.065203282,0.065203282,0.065203282,0.065203282
"265",177226,"Leven, Scotland, United Kingdom",557,56.2148,-2.932882,"Europe",0.066741901,0.066741901,0.066741901,0.066741901,0.080062338,0.066741901,0.066741901,0.066741901,0.066741901,0.066741901,0.066741901,0.066741901
"266",177443,"Asolo, Italy",557,45.78898,11.90987,"Europe",0.066022247,0.066022247,0.066022247,0.066022247,0.06867336,0.066022247,0.066022247,0.066022247,0.067347804,0.066022247,0.066022247,0.067347804
"267",177505,"Monteriggioni, Italy",557,43.36734,11.22472,"Europe",0.065112516,0.065112516,0.065112516,0.065112516,0.068911619,0.065112516,0.065112516,0.065112516,0.065112516,0.065112516,0.065112516,0.066632157
"268",178745,"Pertuis, France",557,43.68776,5.52105,"Europe",0.066908971,0.066908971,0.066908971,0.066908971,0.066908971,0.066908971,0.066908971,0.066908971,0.066908971,0.066908971,0.066908971,0.066908971
"269",180419,"Rungis, France",557,48.74981,2.352521,"Europe",0.065275209,0.065275209,0.065275209,0.065275209,0.065275209,0.065275209,0.065275209,0.065275209,0.065275209,0.065275209,0.065275209,0.070492373
"270",180481,"Sisteron, France",557,44.20052,5.930851,"Europe",0.065522041,0.065522041,0.065522041,0.065522041,0.065522041,0.065522041,0.065522041,0.065522041,0.089831225,0.065522041,0.065522041,0.089831225
"271",180822,"Lech am Arlberg, Austria",557,47.20364,10.14321,"Europe",0.064995333,0.064995333,0.072572884,0.064995333,0.068784109,0.064995333,0.064995333,0.064995333,0.126583114,0.072572884,0.064995333,0.070204899
"272",181039,"Postojna, Slovenia",557,45.77762,14.21797,"Europe",0.066294975,0.066294975,0.066294975,0.066294975,0.066294975,0.066294975,0.066294975,0.066294975,0.066294975,0.066294975,0.066294975,0.069066593
"273",182341,"Beaugency, France",557,47.77863,1.638702,"Europe",0.066046338,0.066046338,0.066046338,0.066046338,0.068627316,0.066046338,0.066046338,0.066046338,0.066046338,0.066046338,0.066046338,0.066046338
"274",183922,"Hanalei, Hawaii, United States of America",557,22.16835,-159.5538,"North America",0.052965697,0.052965697,0.052965697,0.052965697,0.079454853,0.052965697,0.052965697,0.052965697,0.052965697,0.052965697,0.052965697,0.053918804
"275",184015,"Clifton, Texas, United States of America",557,31.8027,-97.50204,"North America",0.066973499,0.066973499,0.066973499,0.066973499,0.068469833,0.066973499,0.066973499,0.066973499,0.066973499,0.066973499,0.066973499,0.069966167
"276",184294,"Euless, Texas, United States of America",557,32.83784,-97.0953,"North America",0.065125498,0.063570984,0.063283959,0.067685758,0.074810079,0.063283959,0.063283959,0.063283959,0.063283959,0.063283959,0.063283959,0.089118207
"277",184387,"Alpharetta, Georgia, United States of America",557,34.07782,-84.26853,"North America",0.065291909,0.063610663,0.061040797,0.061726343,0.068233966,0.061040797,0.061040797,0.061040797,0.061040797,0.061040797,0.06373417,0.102968493
"278",184573,"Apex, North Carolina, United States of America",557,35.73669,-78.89914,"North America",0.064148615,0.064148615,0.064148615,0.064148615,0.073551304,0.064148615,0.064148615,0.071704953,0.064148615,0.064148615,0.064148615,0.079834049
"279",184821,"Alhambra, California, United States of America",557,34.08368,-118.1349,"North America",0.060613678,0.064842575,0.060613678,0.060613678,0.065711915,0.060613678,0.060613678,0.060613678,0.065711915,0.065711915,0.060613678,0.065212514
"280",185193,"Avon, Connecticut, United States of America",557,41.79118,-72.8515,"North America",0.054957074,0.054957074,0.056778567,0.054957074,0.064550821,0.054957074,0.054957074,0.054957074,0.064855407,0.056778567,0.054957074,0.099315579
"281",185503,"Alexandria, Virginia, United States of America",557,38.77512,-77.09776,"North America",0.058694827,0.057297291,0.057297291,0.058478351,0.069527847,0.057297291,0.057297291,0.057797268,0.057297291,0.057297291,0.057517202,0.09626082
"282",185751,"Roanoke, Alabama, United States of America",557,33.13647,-85.36655,"North America",0.067081786,0.067081786,0.067081786,0.067081786,0.067081786,0.067081786,0.067081786,0.067081786,0.067081786,0.067081786,0.067081786,0.067081786
"283",185844,"Union Gap, Washington, United States of America",557,46.55682,-120.4847,"North America",0.065380584,0.065380584,0.065380584,0.065380584,0.068319168,0.065380584,0.065380584,0.065380584,0.065380584,0.065380584,0.065380584,0.066849876
"284",186123,"Alliance, Ohio, United States of America",557,40.92064,-81.12838,"North America",0.064808101,0.072030599,0.060431359,0.095641117,0.073140005,0.060431359,0.060431359,0.060431359,0.064808101,0.060431359,0.060431359,0.108898147
"285",186247,"Hunt Valley, Maryland, United States of America",557,39.48763,-76.65751,"North America",0.066875784,0.06098348,0.06098348,0.06098348,0.06338252,0.06098348,0.06098348,0.06098348,0.06098348,0.06098348,0.06098348,0.102423972
"286",186278,"Arcata, California, United States of America",557,40.84788,-124.0455,"North America",0.060262838,0.070107757,0.060262838,0.060262838,0.062843817,0.060262838,0.060262838,0.060262838,0.060262838,0.060262838,0.060262838,0.085746023
"287",186340,"Barre, Vermont, United States of America",557,44.18678,-72.48295,"North America",0.06632115,0.06632115,0.069255476,0.070321287,0.062255182,0.061273539,0.061273539,0.061273539,0.118394812,0.085400867,0.068323381,0.093956089
"288",186991,"Ascona, Switzerland",557,46.1542,8.770367,"Europe",0.065068527,0.065068527,0.065068527,0.065068527,0.073607781,0.065068527,0.065068527,0.065068527,0.06560223,0.065068527,0.065068527,0.069338154
"289",187270,"Ada, Oklahoma, United States of America",557,34.80905,-96.7054,"North America",0.063356233,0.063356233,0.063356233,0.063356233,0.0838608,0.063356233,0.063356233,0.063356233,0.063356233,0.063356233,0.063356233,0.066073378
"290",187425,"Reynoldsburg, Ohio, United States of America",557,39.95684,-82.78187,"North America",0.06359865,0.069723801,0.06359865,0.06359865,0.067717605,0.069723778,0.06359865,0.06359865,0.06359865,0.06359865,0.06359865,0.088709149
"291",187642,"Durham, North Carolina, United States of America",557,35.99838,-78.88832,"North America",0.077182724,0.104686705,0.057225657,0.067554131,0.078965398,0.057225657,0.057225657,0.057587094,0.057225657,0.057225657,0.057225657,0.144844203
"292",188882,"Johnson City, Tennessee, United States of America",557,36.32822,-82.37295,"North America",0.061449303,0.061449303,0.061449303,0.061449303,0.064423723,0.061449303,0.061449303,0.061449303,0.062440776,0.062440776,0.061449303,0.081417472
"293",189409,"Richardson, Texas, United States of America",557,32.97092,-96.70976,"North America",0.060583274,0.060583275,0.060583274,0.060613842,0.075526023,0.060583274,0.060583274,0.060583274,0.060583274,0.060583274,0.065592933,0.089464485
"294",189657,"Richfield, Minnesota, United States of America",557,44.87646,-93.28311,"North America",0.060942457,0.060942457,0.060942457,0.065370342,0.061924101,0.060942457,0.060942457,0.060942457,0.060942457,0.060942457,0.060942457,0.094722163
"295",190091,"Angers, France",557,47.47172,-0.558217,"Europe",0.065002614,0.065002614,0.065002614,0.065002614,0.065002614,0.065002614,0.065002614,0.065002614,0.065002614,0.065002614,0.065002614,0.06719008
"296",191052,"Asbury Park, New Jersey, United States of America",557,40.24655,-74.05121,"North America",0.048764093,0.053732132,0.048764093,0.048764093,0.067550125,0.053732132,0.048764093,0.049015672,0.048764093,0.048764093,0.048764093,0.069213302
"297",191207,"Rock Island, Illinois, United States of America",557,41.49048,-90.56728,"North America",0.062727049,0.071192346,0.062727049,0.062727049,0.062727049,0.062727049,0.062727049,0.062727049,0.062727049,0.062727049,0.062727049,0.081877983
"298",191579,"Richmond Hill, Ontario, Canada",557,43.90246,-79.42629,"North America",0.06115007,0.06115007,0.067441366,0.06115007,0.072741682,0.065165859,0.06115007,0.06115007,0.067441366,0.062805973,0.06115007,0.090542153
"299",191672,"Seaside, Oregon, United States of America",557,45.89333,-123.6594,"North America",0.054977395,0.060119597,0.054977395,0.054977395,0.063521748,0.054977395,0.054977395,0.055053697,0.054977395,0.054977395,0.054977395,0.077131133
"300",192106,"Ahoskie, North Carolina, United States of America",557,36.29092,-76.98672,"North America",0.066285932,0.066285932,0.066285932,0.066285932,0.067829618,0.066285932,0.066285932,0.066285932,0.066285932,0.066285932,0.066285932,0.066285932
"301",192850,"Cameron Park, California, United States of America",557,38.66257,-120.9769,"North America",0.063102868,0.063102868,0.063102868,0.063102868,0.063102868,0.063102868,0.063102868,0.063102868,0.063234094,0.063102868,0.063102868,0.064676432
"302",192912,"Dyersburg, Tennessee, United States of America",557,36.03378,-89.3864,"North America",0.061968772,0.061968772,0.061968772,0.070690636,0.070690636,0.070690636,0.061968772,0.061968772,0.061968772,0.061968772,0.061968772,0.07257494
"303",193005,"Sulphur, Louisiana, United States of America",557,30.174,-93.43713,"North America",0.067337199,0.06529347,0.06529347,0.06529347,0.071975729,0.06529347,0.06529347,0.06529347,0.06529347,0.06529347,0.06529347,0.077347911
"304",193098,"Jennings, Louisiana, United States of America",557,30.22723,-92.65879,"North America",0.062041621,0.070816653,0.062041621,0.062041621,0.08909667,0.062041621,0.062041621,0.062041621,0.062041621,0.062041621,0.062041621,0.077723586
"305",193811,"Beachwood, Ohio, United States of America",557,41.46986,-81.51473,"North America",0.060259923,0.064524598,0.059973557,0.059325595,0.072040692,0.059325595,0.059325595,0.059325595,0.059973557,0.059973557,0.059328393,0.095089496
"306",193966,"Boynton Beach, Florida, United States of America",557,26.5241,-80.1354,"North America",0.065988046,0.057166981,0.057166981,0.057166981,0.085149247,0.057166981,0.057166981,0.057166981,0.057166981,0.057166981,0.057166981,0.091008329
"307",194245,"Artesia, California, United States of America",557,33.86887,-118.0812,"North America",0.06190017,0.06190017,0.06190017,0.06190017,0.068254599,0.06190017,0.06190017,0.06190017,0.071410312,0.071410312,0.06190017,0.069222166
"308",194431,"Wall, South Dakota, United States of America",557,44.1263,-102.1931,"North America",0.062156169,0.062156169,0.062156169,0.062156169,0.064040472,0.062156169,0.062156169,0.062156169,0.062156169,0.062156169,0.062156169,0.070013708
"309",194679,"Buffalo Grove, Illinois, United States of America",557,42.17241,-87.95922,"North America",0.056442395,0.056442395,0.063027755,0.056442395,0.077244071,0.056570665,0.056442395,0.056442395,0.063027755,0.056442395,0.056442395,0.092650675
"310",194803,"Bal Harbour, Florida, United States of America",557,25.89352,-80.1251,"North America",0.064615216,0.059713365,0.059713365,0.064615216,0.06638347,0.059713365,0.059713365,0.06500335,0.059713365,0.059713365,0.064106603,0.097438745
"311",195144,"Brandon, Florida, United States of America",774,27.92538,-82.29599,"North America",0.061480374,0.061661753,0.061480374,0.061480374,0.082166933,0.069603994,0.061480374,0.061480374,0.061480374,0.061480374,0.061480374,0.07945475
"312",195330,"Battle Mountain, Nevada, United States of America",557,40.63927,-116.936,"North America",0.062192333,0.067477559,0.062192333,0.067477559,0.067440314,0.062192333,0.062192333,0.062192333,0.075181323,0.062192333,0.062192333,0.072725539
"313",195764,"Altavista, Virginia, United States of America",557,37.14224,-79.23463,"North America",0.066046848,0.066046848,0.066046848,0.066046848,0.067571238,0.066046848,0.066046848,0.066046848,0.066046848,0.066046848,0.066046848,0.067571238
"314",195950,"Boca Raton, Florida, United States of America",557,26.37634,-80.15642,"North America",0.060542597,0.060542597,0.054541685,0.062344133,0.076594351,0.060542597,0.054541685,0.054541685,0.054541685,0.054541685,0.060542597,0.117497795
"315",196849,"Borger, Texas, United States of America",557,35.72013,-101.2459,"North America",0.066665505,0.066665505,0.066665505,0.066665505,0.066665505,0.066665505,0.066665505,0.066665505,0.066665505,0.066665505,0.066665505,0.069621898
"316",196880,"Bainbridge, Georgia, United States of America",557,30.87553,-84.61343,"North America",0.066022093,0.066022093,0.066022093,0.071899122,0.066022093,0.066022093,0.066022093,0.066022093,0.066022093,0.066022093,0.066022093,0.076293988
"317",197593,"Amite, Louisiana, United States of America",557,30.72189,-90.5127,"North America",0.06685308,0.06685308,0.06685308,0.06685308,0.06685308,0.06685308,0.06685308,0.06685308,0.06685308,0.06685308,0.06685308,0.069921035
"318",197624,"Vernon Hills, Illinois, United States of America",557,42.23375,-87.96045,"North America",0.069739873,0.061063771,0.061063771,0.063589991,0.063906564,0.069739873,0.061063771,0.061063771,0.061063771,0.061063771,0.065035917,0.091151338
"319",198864,"Barahona, Dominican Republic",557,18.14808,-71.12798,"South America",0.05967417,0.05967417,0.05967417,0.05967417,0.05967417,0.05967417,0.05967417,0.05967417,0.05967417,0.05967417,0.05967417,0.06719082
"320",199112,"Bairnsdale, Victoria, Australia",557,-37.83345,147.6226,"Australia",0.06502625,0.06502625,0.06502625,0.06502625,0.067441126,0.06502625,0.06502625,0.06502625,0.067441126,0.06502625,0.06502625,0.086563646
"321",199918,"Beverly, Massachusetts, United States of America",557,42.56709,-70.86149,"North America",0.06141998,0.057459698,0.057459698,0.057459698,0.057459698,0.064081092,0.057459698,0.057459698,0.057459698,0.057459698,0.057459698,0.101626946
"322",200259,"Blaine, Washington, United States of America",557,48.94085,-122.7575,"North America",0.061517403,0.061517403,0.0628011,0.061517403,0.064562493,0.061517403,0.061517403,0.061517403,0.064084797,0.0628011,0.061517403,0.088436563
"323",200383,"Runnemede, New Jersey, United States of America",557,39.8516,-75.07373,"North America",0.068387105,0.065467802,0.065467802,0.065467802,0.06700178,0.065467802,0.065467802,0.065467802,0.065467802,0.065467802,0.065467802,0.073977657
"324",200414,"Arden Hills, Minnesota, United States of America",557,45.06909,-93.16869,"North America",0.065170943,0.065170943,0.065170943,0.065170943,0.065170943,0.065170943,0.065170943,0.065170943,0.065170943,0.065170943,0.065170943,0.066744507
"325",200693,"Buffalo, Wyoming, United States of America",557,44.34811,-106.6991,"North America",0.064959512,0.064959512,0.067316057,0.064959512,0.06849433,0.064959512,0.064959512,0.064959512,0.066137785,0.066137785,0.067360941,0.079822836
"326",201437,"Cupertino, California, United States of America",557,37.31739,-122.0469,"North America",0.060905553,0.060905553,0.061585779,0.060905553,0.062946231,0.060905553,0.060905553,0.060905553,0.061585779,0.061585779,0.060905553,0.102671936
"327",201623,"Carol Stream, Illinois, United States of America",557,41.91017,-88.12588,"North America",0.066650845,0.076540578,0.059827823,0.059827823,0.077540178,0.059827823,0.059827823,0.059827823,0.059827823,0.059827823,0.059827823,0.094924783
"328",201809,"Chanhassen, Minnesota, United States of America",557,44.85732,-93.55159,"North America",0.067346674,0.067346674,0.062135555,0.062135555,0.081733058,0.062135555,0.062135555,0.062135555,0.085303155,0.068675132,0.06996095,0.078835409
"329",201995,"Hawthorn, Victoria, Australia",557,-37.82493,145.0319,"Australia",0.06579719,0.06579719,0.06579719,0.06579719,0.06724899,0.06579719,0.06579719,0.06579719,0.06579719,0.06579719,0.06579719,0.06724899
"330",202212,"Cairo, Georgia, United States of America",557,30.85784,-84.21776,"North America",0.067040642,0.067040642,0.067040642,0.067040642,0.067040642,0.067040642,0.067040642,0.067040642,0.067040642,0.067040642,0.067040642,0.068604119
"331",202522,"Seal Beach, California, United States of America",557,33.75314,-118.0731,"North America",0.057167082,0.057167082,0.057167082,0.057167082,0.061693715,0.057167082,0.057167082,0.057167082,0.061613927,0.057167082,0.057167082,0.068686629
"332",202553,"Cockeysville, Maryland, United States of America",557,39.48379,-76.63445,"North America",0.075009592,0.062045845,0.062045845,0.062045845,0.064410284,0.062045845,0.062045845,0.062045845,0.062045845,0.062045845,0.062045845,0.103523921
"333",202615,"Concord, Massachusetts, United States of America",557,42.46173,-71.36558,"North America",0.05802875,0.05802875,0.068831618,0.05802875,0.058954933,0.05802875,0.05802875,0.05802875,0.074798619,0.058954933,0.05802875,0.062000557
"334",203421,"Cadillac, Michigan, United States of America",557,44.24888,-85.52235,"North America",0.063545287,0.059011307,0.06230258,0.075265455,0.106219345,0.059011307,0.059011307,0.059011307,0.072094677,0.060515292,0.059011307,0.086921621
"335",203452,"Clayton, New Mexico, United States of America",557,36.44453,-103.171,"North America",0.067463056,0.060917825,0.060917825,0.060917825,0.073607208,0.060917825,0.060917825,0.060917825,0.071520486,0.060917825,0.060917825,0.082157381
"336",204816,"Salem, New Hampshire, United States of America",557,42.80185,-71.22688,"North America",0.063174496,0.063174496,0.063174496,0.063174496,0.064652692,0.063174496,0.063174496,0.063174496,0.063174496,0.063174496,0.063174496,0.07238059
"337",204971,"Cambridge, Maryland, United States of America",557,38.50895,-76.10942,"North America",0.062943914,0.062943914,0.062943914,0.062943914,0.079518748,0.062943914,0.062943914,0.062943914,0.062943914,0.062943914,0.062943914,0.070846155
"338",205188,"Chandler, Arizona, United States of America",557,33.26376,-111.8798,"North America",0.059822644,0.057832633,0.057832633,0.057832633,0.083846349,0.066969416,0.057832633,0.057907374,0.057832633,0.057832633,0.058377605,0.085805577
"339",205560,"Concordville, Glen Mills, Pennsylvania, United States of America",557,39.88451,-75.52946,"North America",0.063978396,0.063978396,0.063978396,0.063978396,0.065404726,0.066900926,0.063978396,0.063978396,0.063978396,0.063978396,0.063978396,0.075734143
"340",205839,"San Clemente, California, United States of America",557,33.43977,-117.6046,"North America",0.058911467,0.058410848,0.058410848,0.058410848,0.094924721,0.059608237,0.058410848,0.058410848,0.058410848,0.058410848,0.058410848,0.084695724
"341",206397,"Castroville, Texas, United States of America",557,29.36922,-98.89088,"North America",0.060203982,0.060203982,0.060203982,0.060203982,0.07131856,0.060203982,0.060203982,0.060203982,0.060203982,0.060203982,0.060203982,0.07131856
"342",206583,"Compton, California, United States of America",557,33.88794,-118.2251,"North America",0.057258917,0.057258917,0.057258917,0.057258917,0.066648588,0.057258917,0.057258917,0.057258917,0.061772136,0.061772136,0.057258917,0.076622599
"343",206676,"Sandy, Utah, United States of America",557,40.57285,-111.843,"North America",0.058514711,0.058514711,0.060329483,0.058514711,0.065156427,0.058514711,0.058514711,0.058514711,0.124355616,0.061539331,0.077634287,0.102137293
"344",207606,"Sauk Centre, Minnesota, United States of America",557,45.71896,-94.98953,"North America",0.066907229,0.066907229,0.066907229,0.066907229,0.068350438,0.066907229,0.066907229,0.066907229,0.066907229,0.066907229,0.066907229,0.069793648
"345",207637,"Sauk City, Wisconsin, United States of America",557,43.2591,-89.79315,"North America",0.066239141,0.066239141,0.066239141,0.066239141,0.066239141,0.066239141,0.066239141,0.066239141,0.066239141,0.066239141,0.066239141,0.066239141
"346",207947,"Coventry, England, United Kingdom",557,52.42225,-1.497423,"Europe",0.060681767,0.060681767,0.060681767,0.071762517,0.075288364,0.07171726,0.060681767,0.061096244,0.061505761,0.060681767,0.060681767,0.0936905
"347",208133,"Schiller Park, Illinois, United States of America",557,41.95794,-87.86935,"North America",0.054373837,0.05622607,0.067411305,0.052858978,0.058453404,0.05622607,0.052858978,0.053696746,0.067411305,0.052858978,0.052858978,0.106006148
"348",208536,"Kingsland, Georgia, United States of America",557,30.81319,-81.72533,"North America",0.060099538,0.077084342,0.060099538,0.060099538,0.072927589,0.060099538,0.060099538,0.060099538,0.060099538,0.060099538,0.077084342,0.090347625
"349",208722,"Blasdell, New York, United States of America",557,42.78923,-78.82969,"North America",0.066549247,0.066549247,0.066549247,0.069492862,0.066549247,0.066549247,0.066549247,0.066549247,0.066549247,0.066549247,0.066549247,0.069493671
"350",209032,"South Burlington, Vermont, United States of America",557,44.44792,-73.17109,"North America",0.077603879,0.054633936,0.060399394,0.054633936,0.061106363,0.056266398,0.054633936,0.054633936,0.079468473,0.065009155,0.054633936,0.108509199
"351",209931,"Boardman, Ohio, United States of America",557,41.02133,-80.67103,"North America",0.065849802,0.065849802,0.065849802,0.065849802,0.067374193,0.065849802,0.065849802,0.065849802,0.065849802,0.065849802,0.065849802,0.068898583
"352",210334,"Bonham, Texas, United States of America",557,33.57352,-96.17656,"North America",0.066889959,0.066889959,0.066889959,0.066889959,0.066889959,0.066889959,0.066889959,0.066889959,0.066889959,0.066889959,0.066889959,0.066889959
"353",210582,"Cathedral City, California, United States of America",557,33.81263,-116.4669,"North America",0.05630034,0.053781851,0.053781851,0.055833079,0.435631069,0.055673853,0.053781851,0.053781851,0.053781851,0.053781851,0.053781851,0.114476233
"354",210985,"Spanish Fork, Utah, United States of America",557,40.11001,-111.6869,"North America",0.059993887,0.059993887,0.059993887,0.067735256,0.073334342,0.059993887,0.059993887,0.059993887,0.086192478,0.06716726,0.059993887,0.073902339
"355",212194,"Bellflower, California, United States of America",557,33.8882,-118.1278,"North America",0.063686227,0.063686227,0.063686227,0.063686227,0.078320446,0.063686227,0.063686227,0.063686227,0.073755317,0.073755317,0.063686227,0.073204352
"356",213000,"Benton, Kentucky, United States of America",557,36.86388,-88.34666,"North America",0.066444866,0.066444866,0.066444866,0.066444866,0.067932076,0.066444866,0.066444866,0.066444866,0.066444866,0.066444866,0.066444866,0.067932076
"357",213186,"The Dalles, Oregon, United States of America",557,45.5509,-121.2014,"North America",0.060905122,0.060905122,0.060905122,0.060905122,0.060905122,0.060905122,0.060905122,0.060905122,0.066003352,0.060905122,0.060905122,0.06607723
"358",213434,"Siesta Key, Florida, United States of America",557,27.25559,-82.54183,"North America",0.053823335,0.050036497,0.050036497,0.050036497,0.061558225,0.050036497,0.050036497,0.050093845,0.056145224,0.056145224,0.050036497,0.063152585
"359",213961,"Bethany, Oklahoma, United States of America",557,35.51398,-97.64481,"North America",0.066197566,0.066197566,0.066197566,0.066197566,0.066197566,0.066197566,0.066197566,0.066197566,0.066197566,0.066197566,0.066197566,0.085215197
"360",214643,"Smithfield, North Carolina, United States of America",557,35.49154,-78.34975,"North America",0.061914669,0.066215457,0.061914669,0.061914669,0.068365469,0.061914669,0.061914669,0.061914669,0.061914669,0.061914669,0.061914669,0.086960884
"361",214984,"Smyrna, Georgia, United States of America",557,33.86687,-84.51571,"North America",0.06083919,0.06083919,0.06083919,0.062220399,0.081538461,0.06083919,0.06083919,0.06083919,0.068208692,0.06083919,0.06083919,0.081273382
"362",215232,"Somers Point, New Jersey, United States of America",557,39.31799,-74.60252,"North America",0.059142748,0.063026422,0.059142748,0.059142748,0.060101429,0.063026422,0.059142748,0.059142748,0.059142748,0.059142748,0.059142748,0.07025004
"363",215263,"Somerset, Massachusetts, United States of America",557,41.74812,-71.15576,"North America",0.065960104,0.065960104,0.065960104,0.065960104,0.065960104,0.065960104,0.065960104,0.065960104,0.065960104,0.065960104,0.065960104,0.087503632
"364",215852,"Clarion, Pennsylvania, United States of America",557,41.20227,-79.35746,"North America",0.078881881,0.078881881,0.060974345,0.082729567,0.07099614,0.060974345,0.060974345,0.060974345,0.060974345,0.060974345,0.060974345,0.095881002
"365",215976,"Burnet, Texas, United States of America",557,30.84944,-98.26849,"North America",0.064639562,0.064639562,0.064639562,0.064639562,0.07160068,0.064639562,0.064639562,0.064639562,0.064639562,0.064639562,0.064639562,0.065592669
"366",216348,"Englewood, New Jersey, United States of America",557,40.89187,-73.97392,"North America",0.059610466,0.063962708,0.059610466,0.059610466,0.059610466,0.063962708,0.059610466,0.059610466,0.059610466,0.059610466,0.059610466,0.094878117
"367",217402,"Camp Hill, Pennsylvania, United States of America",557,40.23445,-76.92978,"North America",0.059394146,0.059394146,0.059394146,0.059394146,0.086053357,0.059394146,0.059394146,0.059394146,0.086053357,0.077502198,0.059394146,0.095351997
"368",217805,"Brea, California, United States of America",557,33.92785,-117.8466,"North America",0.061459913,0.061459913,0.061459913,0.061459913,0.063366127,0.061459913,0.061459913,0.061459913,0.061459913,0.061459913,0.061459913,0.072018297
"369",218766,"Vail, Colorado, United States of America",557,39.63329,-106.3613,"North America",0.058454012,0.059954975,0.067007152,0.058454012,0.068686438,0.058454012,0.058454012,0.058462248,0.219024958,0.080193372,0.05861348,0.088526626
"370",219293,"St. Helens, Oregon, United States of America",557,45.87216,-122.8892,"North America",0.061065451,0.061065451,0.061065451,0.069251133,0.06662567,0.061065451,0.061065451,0.061065451,0.061065451,0.061065451,0.061065451,0.085622497
"371",219417,"Elkins, West Virginia, United States of America",557,38.94313,-79.82468,"North America",0.063138018,0.063138018,0.064000831,0.063138018,0.079606685,0.063138018,0.063138018,0.063138018,0.100733101,0.068110001,0.063138018,0.081507241
"372",219758,"Brooklawn, New Jersey, United States of America",557,39.87896,-75.12115,"North America",0.065879889,0.065879889,0.065879889,0.065879889,0.065879889,0.065879889,0.065879889,0.065879889,0.065879889,0.065879889,0.065879889,0.084357026
"373",220006,"Brooklyn Center, Minnesota, United States of America",557,45.06845,-93.31616,"North America",0.063510067,0.063510067,0.064717505,0.063510067,0.069547256,0.063510067,0.063510067,0.063510067,0.065924942,0.063510067,0.063510067,0.079239448
"374",220533,"Kerrville, Texas, United States of America",557,30.01967,-99.16576,"North America",0.059007907,0.059007907,0.059007907,0.059007907,0.08513961,0.059007907,0.059007907,0.059007907,0.059007907,0.059007907,0.059007907,0.087050929
"375",220719,"Brush, Colorado, United States of America",557,40.26353,-103.6204,"North America",0.066946807,0.066946807,0.066946807,0.066946807,0.066946807,0.066946807,0.066946807,0.066946807,0.066946807,0.066946807,0.066946807,0.068490493
"376",220874,"Espanola, New Mexico, United States of America",557,35.9852,-106.0753,"North America",0.06513959,0.06513959,0.066582799,0.06513959,0.068026009,0.06513959,0.06513959,0.06513959,0.068026009,0.06513959,0.06513959,0.06513959
"377",221556,"Newton, Kansas, United States of America",557,38.05249,-97.34319,"North America",0.065484521,0.061245494,0.061245494,0.061245494,0.063220608,0.061245494,0.061245494,0.061245494,0.061245494,0.061245494,0.061245494,0.067459635
"378",221649,"Burlingame, California, United States of America",557,37.56837,-122.3659,"North America",0.055449337,0.054680194,0.054680194,0.055579274,0.062924283,0.054680194,0.054680194,0.060472845,0.054680194,0.054680194,0.054700141,0.101539634
"379",221742,"Burlington, Ontario, Canada",557,43.35128,-79.81895,"North America",0.059762376,0.058687533,0.058687533,0.058687533,0.061628061,0.067076783,0.058687533,0.058687533,0.059422665,0.058687533,0.058687533,0.077744652
"380",221773,"Fenton, Missouri, United States of America",557,38.50109,-90.46148,"North America",0.06273813,0.067314449,0.06273813,0.06273813,0.064590497,0.067314449,0.06273813,0.06273813,0.06273813,0.06273813,0.063218792,0.083880888
"381",221835,"Heath, Ohio, United States of America",557,40.01086,-82.33305,"North America",0.065617977,0.065617977,0.065617977,0.065617977,0.065617977,0.065617977,0.065617977,0.065617977,0.065617977,0.065617977,0.065617977,0.0794606
"382",221928,"Fountain Valley, California, United States of America",557,33.71066,-117.9514,"North America",0.058778319,0.070340462,0.059574117,0.058778319,0.082127063,0.058778319,0.058778319,0.058778319,0.059574117,0.058778319,0.0677132,0.091872376
"383",222176,"Chapel Hill, North Carolina, United States of America",557,35.90017,-79.09583,"North America",0.068029409,0.088481951,0.060075934,0.082013883,0.069646879,0.060075934,0.060075934,0.060075934,0.060075934,0.060075934,0.061351307,0.139121643
"384",223199,"Checotah, Oklahoma, United States of America",557,35.46059,-95.5596,"North America",0.066839546,0.066839546,0.066839546,0.066839546,0.066839546,0.066839546,0.066839546,0.066839546,0.066839546,0.066839546,0.066839546,0.066839546
"385",223230,"Cheektowaga, New York, United States of America",557,42.9052,-78.76196,"North America",0.056406139,0.060805333,0.066208717,0.060157378,0.060940461,0.064749782,0.056022428,0.056573759,0.066755165,0.057115324,0.056244967,0.113460932
"386",224904,"Teaneck, New Jersey, United States of America",557,40.8904,-74.01118,"North America",0.058457268,0.073596348,0.058457268,0.063236075,0.064286937,0.063614467,0.058457268,0.058457268,0.058457268,0.058457268,0.068542489,0.11722127
"387",225152,"Temple Terrace, Florida, United States of America",557,28.04626,-82.3688,"North America",0.064079255,0.058875739,0.058875739,0.058875739,0.062673447,0.058875739,0.058875739,0.068202945,0.058875739,0.058875739,0.058875739,0.093991224
"388",225431,"Carpinteria, California, United States of America",557,34.39912,-119.5016,"North America",0.057239549,0.057239549,0.057239549,0.057239549,0.059071219,0.057239549,0.057239549,0.057239549,0.057239549,0.057239549,0.057239549,0.094074131
"389",225524,"Carrollton, Texas, United States of America",557,32.98912,-96.89689,"North America",0.062924645,0.062924645,0.062924645,0.062924645,0.068713763,0.062924645,0.062924645,0.062924645,0.062924645,0.062924645,0.062924645,0.082242665
"390",225958,"Thomasville, Alabama, United States of America",557,31.91467,-87.85874,"North America",0.066636018,0.066636018,0.066636018,0.066636018,0.072478846,0.066636018,0.066636018,0.066636018,0.066636018,0.066636018,0.066636018,0.069557432
"391",226144,"Casey, Illinois, United States of America",557,39.30371,-87.98599,"North America",0.066559599,0.066559599,0.066559599,0.066559599,0.068133163,0.066559599,0.066559599,0.066559599,0.066559599,0.066559599,0.066559599,0.066559599
"392",226237,"Fort Bragg, California, United States of America",557,39.46592,-123.7096,"North America",0.057562077,0.057562077,0.057562077,0.057562077,0.065085889,0.057562077,0.057562077,0.057562077,0.057562077,0.057562077,0.057562077,0.06450551
"393",226578,"Catskill, New York, United States of America",557,42.22443,-73.92678,"North America",0.062390655,0.062390655,0.068220069,0.062390655,0.079357505,0.062390655,0.062390655,0.062390655,0.08932205,0.067268877,0.062390655,0.062390655
"394",226857,"Celina, Ohio, United States of America",557,40.55317,-84.5967,"North America",0.066161646,0.066161646,0.066161646,0.066161646,0.069037689,0.066161646,0.066161646,0.066161646,0.066161646,0.066161646,0.066161646,0.066161646
"395",227384,"Sarvar, Hungary",557,47.27762,16.94949,"Europe",0.066153821,0.066153821,0.066153821,0.066153821,0.070625093,0.066153821,0.066153821,0.066153821,0.066153821,0.066153821,0.066153821,0.077332001
"396",227725,"Manteno, Illinois, United States of America",557,41.25028,-87.83646,"North America",0.065348623,0.065348623,0.065348623,0.065348623,0.066892309,0.065348623,0.065348623,0.065348623,0.065348623,0.065348623,0.065348623,0.0822878
"397",227849,"Marshfield, Missouri, United States of America",557,37.33759,-92.90931,"North America",0.066737761,0.066737761,0.066737761,0.066737761,0.066737761,0.066737761,0.066737761,0.066737761,0.066737761,0.066737761,0.066737761,0.066737761
"398",229244,"Waterloo, New York, United States of America",557,42.91164,-76.87981,"North America",0.063041,0.058112537,0.058112537,0.058112537,0.071836418,0.071836418,0.058112537,0.058112537,0.067382676,0.067382676,0.058112537,0.100547367
"399",229430,"Terrigal, New South Wales, Australia",557,-33.44116,151.4295,"Australia",0.060326569,0.060326569,0.060326569,0.060326569,0.061728308,0.060326569,0.060326569,0.060326569,0.060326569,0.060326569,0.060326569,0.071208288
"400",230980,"General Santos, Philippines",557,6.067366,125.1369,"Asia",0.067030541,0.067030541,0.067030541,0.067030541,0.067030541,0.067030541,0.067030541,0.067030541,0.067030541,0.067030541,0.067030541,0.067030541
"401",231445,"Vestavia Hills, Birmingham, Alabama, United States of America",557,33.43745,-86.78185,"North America",0.061661431,0.058508261,0.058508261,0.063513107,0.0702871,0.058508261,0.058508261,0.058508261,0.058508261,0.058508261,0.058508261,0.077289715
"402",231538,"Clarksville, Arkansas, United States of America",557,35.58223,-93.46149,"North America",0.066680578,0.070622492,0.061201416,0.071265699,0.067628176,0.06514333,0.061201416,0.061201416,0.061201416,0.061201416,0.061201416,0.082717528
"403",232716,"Patras, Greece",557,38.24695,21.77899,"Europe",0.063505156,0.063505156,0.063505156,0.063505156,0.063505156,0.063505156,0.063505156,0.063505156,0.064574904,0.063505156,0.083485172,0.086694414
"404",232778,"Wadsworth, Ohio, United States of America",557,41.05757,-81.73856,"North America",0.071520681,0.066691622,0.062199564,0.062199564,0.072221459,0.066691622,0.062199564,0.062199564,0.062199564,0.062199564,0.062199564,0.081725629
"405",233212,"Wakefield, Massachusetts, United States of America",557,42.50292,-71.06488,"North America",0.065698743,0.060316616,0.056302271,0.060859164,0.062816419,0.060316616,0.056302271,0.056333003,0.077812657,0.056302271,0.056302271,0.107530061
"406",233429,"Zlin, Czech Republic",557,49.23342,17.66345,"Europe",0.066355807,0.066355807,0.066355807,0.066355807,0.066355807,0.066355807,0.066355807,0.066355807,0.066355807,0.066355807,0.066355807,0.066355807
"407",233491,"Gulf Shores, Alabama, United States of America",557,30.26182,-87.80714,"North America",0.056720078,0.056720078,0.056720078,0.056720078,0.064907517,0.056720078,0.056720078,0.058849301,0.056720078,0.056720078,0.056720078,0.093305664
"408",233615,"Guymon, Oklahoma, United States of America",557,36.75059,-101.514,"North America",0.061630745,0.065743512,0.061630745,0.067347389,0.069011698,0.065743512,0.061630745,0.061630745,0.061630745,0.061630745,0.061630745,0.0782143
"409",233646,"Wallingford, Connecticut, United States of America",557,41.45874,-72.80373,"North America",0.061924876,0.068622428,0.061924876,0.061924876,0.06380918,0.073676474,0.061924876,0.061924876,0.061924876,0.061924876,0.061924876,0.089262692
"410",233863,"Greenwood, Mississippi, United States of America",557,33.58601,-90.13999,"North America",0.063851845,0.063851845,0.063851845,0.063851845,0.074336663,0.063851845,0.063851845,0.063851845,0.063851845,0.063851845,0.063851845,0.078796041
"411",234452,"Westmont, Illinois, United States of America",557,41.79726,-87.97472,"North America",0.062903214,0.062903214,0.062903214,0.062903214,0.062903214,0.065198845,0.062903214,0.062903214,0.062903214,0.062903214,0.062903214,0.070312333
"412",234607,"Davidson, North Carolina, United States of America",557,35.48478,-80.79538,"North America",0.068720481,0.064096818,0.0689169,0.064096818,0.068720481,0.068720481,0.064096818,0.064096818,0.0689169,0.064096818,0.064096818,0.082399053
"413",235134,"Rosemont, Illinois, United States of America",557,41.98849,-87.87171,"North America",0.057915382,0.057744872,0.057742836,0.057742836,0.063704087,0.074508375,0.057742836,0.058664485,0.057742836,0.057742836,0.057742836,0.098110312
"414",235227,"Grinnell, Iowa, United States of America",557,41.73844,-92.71542,"North America",0.064322689,0.064322689,0.089893464,0.064322689,0.064322689,0.064322689,0.064322689,0.064322689,0.089893464,0.064322689,0.064322689,0.07401234
"415",235289,"Henderson, Nevada, United States of America",557,35.94925,-115.0565,"North America",0.052843157,0.052812081,0.052053778,0.053858603,0.08015425,0.05206396,0.052053778,0.052053778,0.052053778,0.052053778,0.055466704,0.102911024
"416",236281,"Harmarville, Pittsburgh, Pennsylvania, United States of America",557,40.53432,-79.84985,"North America",0.116338316,0.056984103,0.056984103,0.056984103,0.056984103,0.056984103,0.056984103,0.056984103,0.056984103,0.056984103,0.056984103,0.116338316
"417",236560,"South Yarmouth, Massachusetts, United States of America",557,41.67369,-70.19838,"North America",0.064246322,0.064246322,0.058278273,0.058278273,0.077504142,0.058278273,0.058278273,0.058278273,0.065204542,0.058278273,0.064785109,0.070371715
"418",236591,"Spring Lake, Michigan, United States of America",557,43.09056,-86.20271,"North America",0.062090905,0.062090905,0.062090905,0.062090905,0.062090905,0.062090905,0.062090905,0.062090905,0.062090905,0.062090905,0.062090905,0.071961864
"419",236901,"Williams, Arizona, United States of America",557,35.24066,-112.1785,"North America",0.056604472,0.05812614,0.058073764,0.056604472,0.065420223,0.056604472,0.056604472,0.056604472,0.061012347,0.058073764,0.056604472,0.065672839
"420",237893,"Hermiston, Oregon, United States of America",557,45.83311,-119.3549,"North America",0.065133421,0.065133421,0.065133421,0.065133421,0.067843448,0.065133421,0.065133421,0.065133421,0.065133421,0.065133421,0.065133421,0.081409349
"421",237924,"Natchez, Mississippi, United States of America",557,31.53966,-91.33309,"North America",0.059996779,0.059996779,0.059996779,0.059996779,0.066671693,0.059996779,0.059996779,0.059996779,0.065099416,0.059996779,0.059996779,0.067080474
"422",238048,"Koloa, Hawaii, United States of America",557,21.89147,-159.454,"North America",0.050709021,0.052019378,0.050709021,0.050991033,0.099387465,0.050709021,0.050709021,0.050709021,0.050709021,0.050709021,0.055610452,0.075974025
"423",238172,"Wentzville, Missouri, United States of America",557,38.81218,-90.86055,"North America",0.064851633,0.069724773,0.064851633,0.064851633,0.066803233,0.069724773,0.064851633,0.064851633,0.064851633,0.064851633,0.064851633,0.071676374
"424",238947,"Hollister, California, United States of America",557,36.85975,-121.2497,"North America",0.064818741,0.064818741,0.064818741,0.064818741,0.064818741,0.064818741,0.064818741,0.064818741,0.064818741,0.064818741,0.064818741,0.084923635
"425",239009,"Hamilton, Victoria, Australia",557,-37.74146,142.0267,"Australia",0.065396148,0.065396148,0.065396148,0.065396148,0.067956312,0.065396148,0.065396148,0.065396148,0.065396148,0.065396148,0.065396148,0.065396148
"426",239164,"Homosassa Springs, Homosassa, Florida, United States of America",557,28.80255,-82.57469,"North America",0.06042334,0.06042334,0.06042334,0.06042334,0.067202697,0.06042334,0.06042334,0.06042334,0.06042334,0.06042334,0.06042334,0.06042334
"427",240342,"Huntsville, Texas, United States of America",557,30.74274,-95.58113,"North America",0.064567741,0.062669965,0.062669965,0.062669965,0.073410039,0.062669965,0.062669965,0.062669965,0.062669965,0.062669965,0.062669965,0.071547498
"428",240776,"Hay on Wye, Wales, United Kingdom",557,52.05797,-3.175004,"Europe",0.064418386,0.064418386,0.064418386,0.064418386,0.064418386,0.064418386,0.064418386,0.064418386,0.064418386,0.064418386,0.064418386,0.064418386
"429",241520,"Yazoo City, Mississippi, United States of America",557,32.83157,-90.4976,"North America",0.061691935,0.065945177,0.061691935,0.061691935,0.078704904,0.065945177,0.061691935,0.061691935,0.061691935,0.061691935,0.061691935,0.092965135
"430",241613,"York, South Carolina, United States of America",557,34.98653,-81.21383,"North America",0.067092413,0.067092413,0.067092413,0.067092413,0.068707661,0.067092413,0.067092413,0.067092413,0.067092413,0.067092413,0.067092413,0.067092413
"431",242419,"Edmond, Oklahoma, United States of America",557,35.68708,-97.51541,"North America",0.059951546,0.059951546,0.063867651,0.060215618,0.064491269,0.059951546,0.059951546,0.059951546,0.063867651,0.059951546,0.059951546,0.09358538
"432",242512,"Irvine, California, United States of America",557,33.68233,-117.7661,"North America",0.055032397,0.060636722,0.05481201,0.055468309,0.074847038,0.054454075,0.054454075,0.054454075,0.055169946,0.05481201,0.057495092,0.09943212
"433",242543,"Fountain Hills, Arizona, United States of America",557,33.60739,-111.7395,"North America",0.05570012,0.05570012,0.05570012,0.05570012,0.195194055,0.05570012,0.05570012,0.05570012,0.060885229,0.05570012,0.05570012,0.078433365
"434",242605,"Effingham (and vicinity), Illinois, United States of America",464,39.13841,-88.56116,"North America",0.063745801,0.063745801,0.063745801,0.063745801,0.067168993,0.063745801,0.063745801,0.063745801,0.063745801,0.063745801,0.063745801,0.080728457
"435",242729,"El Segundo, California, United States of America",557,33.91737,-118.4011,"North America",0.052546517,0.074117598,0.052546517,0.053012996,0.058027514,0.090316309,0.052546517,0.052817142,0.052546517,0.052546517,0.052546517,0.098969832
"436",243039,"Elmhurst, Illinois, United States of America",557,41.89544,-87.94331,"North America",0.07786746,0.060472892,0.060472892,0.060472892,0.061437212,0.060472892,0.060472892,0.060472892,0.060472892,0.060472892,0.060472892,0.092158602
"437",243287,"Arcadia, California, United States of America",557,34.13203,-118.0394,"North America",0.059708165,0.059708165,0.059708165,0.067918604,0.061519595,0.059708165,0.059708165,0.072758715,0.059708165,0.059708165,0.059708165,0.079531394
