"","destination_id","Destination_name","destination_type_id","destination_latitude","destination_longitude","Continent","Entertainment_Aquarium","Entertainment_Casino","Entertainment_Entertainment","Entertainment_Family_Friendly","Entertainment_Jazz","Entertainment_Live_Music","Entertainment_Musicals","Entertainment_Nightclubs","Entertainment_Nightlife","Entertainment_Opera","Entertainment_Theater","Entertainment_Themepark","Entertainment_Tours","Entertainment_Waterparks","Entertainment_Zoo"
"1",8152,"Aarhus (and vicinity), Denmark",464,56.15309,10.205722,"Europe",0.064895787,0.064301463,0.064728972,0.077746934,0.06397231,0.066904705,0.06397231,0.064310898,0.064400663,0.06397231,0.066918398,0.072549542,0.079560545,0.064301463,0.064857932
"2",8710,"Albany (and vicinity), Georgia, United States of America",464,31.617903,-84.2226,"North America",0.064719282,0.064657527,0.064657527,0.10072113,0.064657527,0.065630977,0.064657527,0.064657527,0.064657527,0.064657527,0.074897823,0.064657527,0.069157572,0.064657527,0.064657527
"3",9485,"Akureyri, Iceland",557,65.72356,-18.10845,"Europe",0.064390792,0.064390792,0.064390792,0.067875112,0.064390792,0.064390792,0.064390792,0.068105979,0.064390792,0.064390792,0.078887069,0.064390792,0.081627421,0.064390792,0.064390792
"4",10043,"Athens (and vicinity), Georgia, United States of America",464,33.95772,-83.388577,"North America",0.062859997,0.062859997,0.064117226,0.092935748,0.062859997,0.074009572,0.062859997,0.064592225,0.063631753,0.062859997,0.075303539,0.062859997,0.068453763,0.062859997,0.062859997
"5",10105,"Al Hoceima, Morocco",557,35.24044,-3.929738,"Africa",0.066520319,0.066520319,0.066520319,0.07432672,0.066520319,0.066520319,0.066520319,0.069122452,0.069122452,0.066520319,0.066520319,0.069122452,0.071724586,0.066520319,0.066520319
"6",10198,"Anderson, Indiana, United States of America",557,40.09165,-85.65928,"North America",0.065166312,0.08722661,0.070493786,0.112678381,0.060241387,0.067877774,0.066570395,0.060284004,0.060241387,0.066570395,0.085731967,0.068421511,0.088305774,0.060241387,0.087855567
"7",11190,"Alpine (and vicinity), Texas, United States of America",464,30.364678,-103.639926,"North America",0.062400936,0.062400936,0.062400936,0.078075564,0.062400936,0.062514005,0.062400936,0.062400936,0.062400936,0.062400936,0.062400936,0.067538676,0.082170009,0.062400936,0.062400936
"8",11376,"Alamogordo, New Mexico, United States of America",557,32.73735,-106.0033,"North America",0.062820641,0.062820641,0.062820641,0.093320515,0.062820641,0.064928719,0.062820641,0.063873447,0.063873447,0.062820641,0.062820641,0.062820641,0.09172937,0.062820641,0.091854498
"9",12988,"Armidale, New South Wales, Australia",557,-30.52389,151.6555,"Australia",0.066308381,0.066308381,0.066308381,0.067641181,0.066308381,0.066308381,0.066308381,0.066308381,0.066308381,0.066308381,0.066308381,0.066308381,0.068973981,0.066308381,0.066308381
"10",13484,"Astoria, Oregon, United States of America",557,46.12418,-123.6769,"North America",0.056799519,0.056799519,0.05832449,0.097926886,0.056799519,0.058694255,0.056799519,0.05801909,0.056799519,0.056799519,0.058467341,0.056799519,0.092457036,0.056799519,0.056799519
"11",13980,"Appleton - Lake Winnebago (and vicinity), Wisconsin, United States of America",464,44.26222,-88.46827,"North America",0.059030696,0.05928805,0.059746139,0.121497275,0.059030696,0.082262811,0.059505942,0.059765144,0.05928805,0.059030696,0.059768573,0.060331868,0.108642337,0.067053911,0.067485087
"12",14011,"Watertown, South Dakota, United States of America",557,44.93607,-97.09045,"North America",0.061703365,0.074237105,0.066557941,0.086011882,0.061703365,0.061703365,0.061703365,0.066557941,0.061703365,0.061703365,0.072075537,0.061703365,0.106795887,0.064407201,0.061703365
"13",14166,"Abu Dhabi, United Arab Emirates",557,24.45503,54.50751,"Asia",0.06355812,0.056954803,0.070576828,0.094596493,0.057424934,0.072381033,0.056954803,0.068737828,0.059315719,0.056954803,0.058517579,0.097412701,0.097073577,0.080933818,0.066199422
"14",14569,"Avignon, France",774,43.94932,4.816989,"Europe",0.062187787,0.062187787,0.064365487,0.075323281,0.062187787,0.063198843,0.062187787,0.063172421,0.062550737,0.062187787,0.080042581,0.062187787,0.096291368,0.062187787,0.062187787
"15",14755,"Anguilla (all), Anguilla",464,18.180819,-63.134483,"South America",0.05844795,0.05844795,0.06329825,0.090292945,0.062942376,0.07523045,0.06329825,0.06212257,0.05844795,0.05844795,0.06329825,0.05844795,0.085670316,0.05844795,0.05844795
"16",15034,"Antalya, Turkey",557,36.89298,30.77626,"Europe",0.058823199,0.057397778,0.087254369,0.093391615,0.057989409,0.062437378,0.057397778,0.072306247,0.066696876,0.057397778,0.071021814,0.058622474,0.102972401,0.064209837,0.057397778
"17",15499,"Baotou, China",557,41.60901,110.2638,"Asia",0.065861819,0.069749089,0.065861819,0.081410896,0.065861819,0.065861819,0.065861819,0.077523627,0.077523627,0.065861819,0.065861819,0.065861819,0.067805454,0.065861819,0.065861819
"18",15902,"Bacolod, Philippines",557,10.6775,122.952,"Asia",0.060725836,0.065446357,0.060725836,0.078481956,0.060725836,0.065035913,0.060725836,0.069836501,0.065035913,0.060725836,0.069756434,0.060725836,0.070812301,0.069836501,0.069836501
"19",16801,"Bethel, Alaska, United States of America",557,60.79359,-161.8039,"North America",0.066326205,0.066326205,0.066326205,0.069438561,0.066326205,0.066326205,0.066326205,0.066326205,0.066326205,0.066326205,0.066326205,0.066326205,0.066326205,0.066326205,0.066326205
"20",16987,"Bradford, Pennsylvania, United States of America",557,41.91562,-78.76539,"North America",0.063526095,0.067538006,0.063526095,0.082714797,0.063526095,0.063526095,0.063526095,0.067359148,0.063526095,0.063526095,0.063526095,0.063526095,0.086598364,0.063526095,0.068209051
"21",18568,"Bujumbura, Burundi",557,-3.390973,29.3582,"Africa",0.062011075,0.062011075,0.072540192,0.063602672,0.062011075,0.081969943,0.062011075,0.062011075,0.062011075,0.062011075,0.081969943,0.062011075,0.083019236,0.062011075,0.075593427
"22",18847,"Bangkok, Thailand",557,13.7704,100.6211,"Asia",0.075303085,0.051154703,0.068455666,0.11133482,0.051729047,0.059883798,0.055098804,0.087351821,0.057357282,0.051202928,0.090101439,0.054315863,0.133557442,0.051154703,0.059071099
"23",21296,"Barquisimeto, Venezuela",557,10.03041,-69.31138,"South America",0.060240964,0.060240964,0.060240964,0.120481928,0.060240964,0.060240964,0.060240964,0.120481928,0.120481928,0.060240964,0.060240964,0.060240964,0.180722892,0.060240964,0.060240964
"24",21327,"Bern, Switzerland",557,46.9477,7.40662,"Europe",0.062305518,0.064310061,0.063060634,0.076331015,0.081770887,0.081770887,0.062305518,0.063989988,0.063060634,0.062305518,0.081770887,0.062305518,0.089322047,0.067137766,0.081770887
"25",22319,"Buenos Aires, Argentina",557,-34.61037,-58.44113,"South America",0.055465757,0.056630478,0.065895911,0.067312691,0.065014547,0.081371195,0.055465757,0.066533527,0.062690541,0.072599919,0.079044968,0.056630478,0.139758912,0.055507354,0.055601218
"26",23373,"Dibba, Oman",557,25.65178,56.21976,"Asia",0.0658809,0.0658809,0.0658809,0.067395822,0.0658809,0.0658809,0.0658809,0.0658809,0.0658809,0.0658809,0.0658809,0.0658809,0.0658809,0.0658809,0.0658809
"27",23590,"Bozeman (and vicinity), Montana, United States of America",464,45.69789,-111.04859,"North America",0.062189167,0.065311547,0.06327887,0.100372548,0.062189167,0.063308831,0.062189167,0.06582275,0.062811673,0.062189167,0.062189167,0.062710326,0.068141798,0.062189167,0.062189167
"28",23683,"Brazzaville, Republic of the Congo",557,-4.237149,15.29222,"Africa",0.066913093,0.066913093,0.066913093,0.069908002,0.066913093,0.066913093,0.066913093,0.066913093,0.066913093,0.066913093,0.066913093,0.066913093,0.066913093,0.066913093,0.066913093
"29",23776,"Cascavel (Parana), Brazil",557,-24.95574,-53.43666,"South America",0.065889955,0.065889955,0.065889955,0.071037961,0.065889955,0.065889955,0.065889955,0.065889955,0.065889955,0.065889955,0.065889955,0.065889955,0.073611963,0.065889955,0.110756226
"30",24954,"Crescent City, California, United States of America",557,41.77528,-124.0064,"North America",0.088692364,0.065235464,0.065235464,0.091580167,0.060957266,0.067975359,0.060957266,0.065391414,0.060957266,0.060957266,0.060957266,0.065235464,0.098706444,0.060957266,0.060957266
"31",25574,"Cologne, Germany",557,50.94614,6.973173,"Europe",0.061380132,0.061380132,0.067243015,0.085693236,0.061380132,0.065101444,0.061380132,0.064804763,0.062766684,0.061380132,0.061741864,0.062113673,0.092467608,0.061380132,0.061380132
"32",26194,"Chipata, Zambia",557,-13.63118,32.63906,"Africa",0.066970688,0.066970688,0.066970688,0.066970688,0.066970688,0.066970688,0.066970688,0.066970688,0.066970688,0.066970688,0.066970688,0.066970688,0.070023191,0.066970688,0.066970688
"33",26814,"College Station (and vicinity), Texas, United States of America",464,30.62921,-96.31858,"North America",0.064562318,0.059151672,0.096501303,0.116062639,0.065242573,0.075119572,0.068872653,0.059408867,0.059151672,0.059151672,0.0732773,0.059151672,0.071839577,0.064562318,0.064562318
"34",26969,"Charlotte, North Carolina, United States of America",557,35.22723,-80.8362,"North America",0.052584262,0.052584262,0.108150479,0.117400136,0.052688681,0.122632032,0.076709874,0.058825291,0.057852307,0.052584262,0.140384102,0.056406499,0.11555872,0.055512509,0.052584262
"35",27217,"Columbus, Ohio, United States of America",557,39.98415,-82.98585,"North America",0.057070333,0.059756229,0.083526753,0.125257278,0.057289961,0.122901261,0.057578948,0.061157291,0.058215076,0.057070333,0.106460803,0.057776614,0.084885797,0.058375212,0.070935124
"36",27310,"Club Makokola, Mangochi, Malawi",557,-14.30099,35.11935,"Africa",0.066727253,0.066727253,0.066727253,0.068205449,0.066727253,0.066727253,0.066727253,0.066727253,0.066727253,0.066727253,0.066727253,0.066727253,0.068205449,0.066727253,0.066727253
"37",27341,"Clermont, Queensland, Australia",557,-22.7198,147.4383,"Australia",0.064516129,0.064516129,0.064516129,0.064516129,0.064516129,0.064516129,0.064516129,0.064516129,0.064516129,0.064516129,0.064516129,0.064516129,0.129032258,0.064516129,0.064516129
"38",27837,"Coeur d'Alene, Idaho, United States of America",557,47.64194,-116.7035,"North America",0.058928887,0.059574132,0.06071953,0.141137369,0.058928887,0.059519386,0.058928887,0.060558304,0.059574132,0.058928887,0.066309756,0.071440756,0.062800354,0.069805392,0.058928887
"39",28240,"Copiapo, Chile",557,-27.3642,-70.33157,"South America",0.066563052,0.066563052,0.066563052,0.066563052,0.066563052,0.066563052,0.066563052,0.066563052,0.066563052,0.066563052,0.066563052,0.066563052,0.066563052,0.066563052,0.066563052
"40",28953,"Chengdu, China",557,30.69975,103.8605,"Asia",0.059798921,0.060013495,0.081387914,0.097838868,0.059798921,0.070071829,0.069251827,0.066758571,0.0692158,0.069251827,0.069251827,0.075530171,0.090584399,0.075101024,0.075101024
"41",28984,"Cucuta, Colombia",557,7.907297,-72.50908,"South America",0.064992795,0.06900166,0.064992795,0.067501996,0.064992795,0.064992795,0.064992795,0.064992795,0.064992795,0.064992795,0.064992795,0.064992795,0.081686795,0.064992795,0.064992795
"42",29046,"Culiacan (and vicinity), Sinaloa, Mexico",464,24.813196,-107.401922,"South America",0.062611813,0.063300613,0.063300613,0.07159366,0.062611813,0.066868322,0.068149659,0.062611813,0.062611813,0.062611813,0.07526633,0.069527259,0.079070454,0.07526633,0.062611813
"43",29108,"Cancun, Quintana Roo, Mexico",557,21.12304,-86.88591,"South America",0.06461259,0.046867232,0.113833314,0.145257126,0.046433689,0.081917287,0.050830548,0.071913962,0.056050194,0.046237543,0.05479205,0.048421411,0.090018115,0.061743296,0.046237543
"44",30286,"Dhaka, Bangladesh",557,23.78061,90.40796,"Asia",0.061376673,0.061376673,0.061832046,0.065475033,0.061376673,0.061376673,0.061376673,0.063712811,0.061376673,0.061376673,0.061376673,0.068680529,0.117965659,0.061376673,0.061376673
"45",30782,"Dodge City, Kansas, United States of America",557,37.74656,-100.0187,"North America",0.060493106,0.104628995,0.064442626,0.120831693,0.060493106,0.064586595,0.064442626,0.060493106,0.060493106,0.060493106,0.114415057,0.060493106,0.080329277,0.060493106,0.08270109
"46",31216,"Durango, Durango, Mexico",557,24.03852,-104.6613,"South America",0.062073191,0.062073191,0.062073191,0.107962824,0.062073191,0.079556536,0.062073191,0.062073191,0.062073191,0.062073191,0.084433391,0.066950047,0.086227343,0.062073191,0.066950047
"47",31402,"Dijon, France",557,47.3233,5.039531,"Europe",0.062359682,0.062359682,0.063737662,0.080874564,0.062359682,0.062359682,0.062359682,0.062359682,0.062359682,0.062359682,0.062359682,0.062359682,0.077724169,0.062359682,0.062359682
"48",31960,"Geilo, Hol, Norway",557,60.53467,8.206244,"Europe",0.066428107,0.066428107,0.066428107,0.071426108,0.066428107,0.066428107,0.066428107,0.067427707,0.067427707,0.066428107,0.066428107,0.066428107,0.070426508,0.066428107,0.066428107
"49",32053,"Da Lat, Vietnam",557,11.92321,108.4671,"Asia",0.059927463,0.059927463,0.059927463,0.068335105,0.059927463,0.06168361,0.059927463,0.060361152,0.060361152,0.059927463,0.059927463,0.069363248,0.122941667,0.059927463,0.059927463
"50",32456,"Denizli, Turkey",557,37.87642,29.14919,"Europe",0.062170976,0.062170976,0.062170976,0.093039897,0.062170976,0.062170976,0.062170976,0.062686493,0.062686493,0.062170976,0.078633195,0.063202011,0.121959145,0.062170976,0.062170976
"51",33386,"Durban, South Africa",557,-29.84922,30.99178,"Africa",0.059114969,0.093258,0.076007165,0.104247285,0.063764015,0.070129447,0.059101673,0.061289446,0.059316528,0.063523432,0.086731362,0.072614439,0.080430422,0.059101673,0.059101673
"52",33944,"Kampala, Uganda",557,0.30793,32.57166,"Africa",0.060487022,0.086970425,0.087392936,0.070590834,0.060487022,0.064134873,0.060487022,0.064609471,0.060909534,0.060487022,0.063182819,0.060487022,0.117224217,0.060487022,0.060487022
"53",34223,"Edinburgh, Scotland, United Kingdom",557,55.94121,-3.224316,"Europe",0.049545082,0.049583858,0.05477314,0.106368708,0.049545082,0.084885264,0.049545082,0.065822211,0.05256437,0.049545082,0.088498081,0.049545082,0.148800629,0.049545082,0.06190063
"54",35122,"El Paso (and vicinity), Texas, United States of America",464,31.78105,-106.404565,"North America",0.059237483,0.061015988,0.079811983,0.110431432,0.059671534,0.065361487,0.059237483,0.064670873,0.060787511,0.059237483,0.078085924,0.059954398,0.068045932,0.063773148,0.065441232
"55",36331,"El Salvador, Chile",557,-26.14895,-69.62051,"South America",0.057188432,0.057188432,0.064065531,0.090037193,0.064065531,0.064065531,0.057188432,0.064065531,0.064065531,0.057188432,0.072903272,0.062899739,0.101695596,0.057188432,0.064803508
"56",36703,"New Bedford, Massachusetts, United States of America",557,41.66583,-70.93975,"North America",0.062924307,0.062924307,0.062924307,0.079369191,0.062924307,0.062924307,0.062924307,0.06988943,0.062924307,0.062924307,0.073635093,0.062924307,0.073635093,0.062924307,0.062924307
"57",37044,"Fajardo, Puerto Rico",557,18.32608,-65.65771,"South America",0.047177831,0.061868825,0.052684562,0.14288709,0.047177831,0.052585037,0.052900723,0.052622169,0.0535827,0.047177831,0.052900723,0.047177831,0.118191506,0.110983555,0.047177831
"58",37168,"Fresno, California, United States of America",557,36.70835,-119.8372,"North America",0.057807305,0.084839355,0.065126937,0.125673417,0.062018257,0.080963929,0.066586982,0.062013528,0.05780731,0.057807305,0.074370692,0.0584236,0.104083783,0.059686106,0.075936835
"59",37881,"Flagstaff, Arizona, United States of America",557,35.32666,-111.5108,"North America",0.054016062,0.062268398,0.059855487,0.169264541,0.054016122,0.057127113,0.054016062,0.059874534,0.055044212,0.054016062,0.056521282,0.054016062,0.11576409,0.054016062,0.058281607
"60",38718,"Freeport, Grand Bahama Island, Bahamas",557,26.54691,-78.62624,"South America",0.051296612,0.094189521,0.108406401,0.097053153,0.051296612,0.067304196,0.051296612,0.062053783,0.053817643,0.051296612,0.052825583,0.051296612,0.107040513,0.051695494,0.058009613
"61",39896,"Great Bend (and vicinity), Kansas, United States of America",464,38.36187,-98.783956,"North America",0.062099464,0.062099464,0.062099464,0.103588616,0.062099464,0.088293288,0.062099464,0.062099464,0.062099464,0.062099464,0.066287201,0.062099464,0.072814592,0.062099464,0.083749751
"62",41384,"Grand Junction (and vicinity), Colorado, United States of America",464,39.112646,-108.54066,"North America",0.056157853,0.056157853,0.069764232,0.129301155,0.056157853,0.073125382,0.056157853,0.109513108,0.057887186,0.056157853,0.056369347,0.056764575,0.060916911,0.056157853,0.056157853
"63",42810,"George, South Africa",557,-33.98348,22.4279,"Africa",0.065349279,0.065349279,0.065349279,0.069865991,0.065349279,0.065349279,0.065349279,0.065349279,0.065349279,0.065349279,0.065349279,0.065349279,0.077962584,0.065349279,0.065349279
"64",43399,"Gunnison, Colorado, United States of America",557,38.48177,-107.0868,"North America",0.063904389,0.063904389,0.063904389,0.083480829,0.063904389,0.063904389,0.063904389,0.063904389,0.063904389,0.063904389,0.063904389,0.063904389,0.069607049,0.063904389,0.063904389
"65",46065,"Hluhluwe, South Africa",557,-27.91931,32.21917,"Africa",0.066161025,0.066161025,0.066161025,0.072936093,0.066161025,0.066161025,0.066161025,0.066161025,0.066161025,0.066161025,0.066161025,0.067007909,0.07717051,0.066161025,0.066161025
"66",46902,"Princeville, Hawaii, United States of America",557,22.20893,-159.4733,"North America",0.057890646,0.057890646,0.057890646,0.094972405,0.057890646,0.060615614,0.057890646,0.067160914,0.057890646,0.057890646,0.057890646,0.057890646,0.076253554,0.057890646,0.057890646
"67",47088,"Harlingen, Texas, United States of America",557,26.18563,-97.72042,"North America",0.059626892,0.059626892,0.06063027,0.116041849,0.059626892,0.065765285,0.059626892,0.059626892,0.059626892,0.059626892,0.071202928,0.059626892,0.108003245,0.059626892,0.06343212
"68",47863,"Honningsvag, Nordkapp, Norway",557,70.98721,25.98217,"Europe",0.066757269,0.066757269,0.066757269,0.066757269,0.066757269,0.066757269,0.066757269,0.066757269,0.066757269,0.066757269,0.066757269,0.066757269,0.072364221,0.066757269,0.066757269
"69",47925,"Havre, Montana, United States of America",557,48.37663,-109.6558,"North America",0.060831661,0.091657686,0.060831661,0.074010443,0.060831661,0.060831661,0.060831661,0.060831661,0.060831661,0.060831661,0.060831661,0.060831661,0.090301358,0.060831661,0.060831661
"70",48514,"Idaho Falls (and vicinity), Idaho, United States of America",464,43.497752,-112.04716,"North America",0.055664862,0.055939473,0.055924997,0.111304391,0.055664862,0.064808001,0.055887196,0.06508267,0.064679075,0.055887196,0.061301067,0.072648056,0.088331664,0.055664862,0.061166147
"71",50467,"Iquitos (and vicinity), Peru",464,-3.752397,-73.246713,"South America",0.057048754,0.05940151,0.058617258,0.090130666,0.057048754,0.069018341,0.063726417,0.069802593,0.063372009,0.057048754,0.063726417,0.05940151,0.14641065,0.057048754,0.083285679
"72",50653,"Kirksville, Missouri, United States of America",557,40.15751,-92.59195,"North America",0.062640597,0.062640597,0.062640597,0.086878719,0.062640597,0.062640597,0.062640597,0.06390377,0.062640597,0.062640597,0.076636446,0.062640597,0.076829175,0.062640597,0.068946632
"73",51056,"Hilo, Hawaii, United States of America",557,19.71103,-155.2187,"North America",0.049688077,0.049688077,0.052422708,0.151826004,0.049688077,0.057441236,0.049688077,0.062037578,0.049702083,0.049688077,0.071273367,0.049688077,0.097114269,0.05366668,0.051211984
"74",51180,"Ivalo, Finland",557,68.65356,27.54374,"Europe",0.066047809,0.066047809,0.066047809,0.068656392,0.066047809,0.066047809,0.066047809,0.0673521,0.0673521,0.066047809,0.066047809,0.066047809,0.068656392,0.066047809,0.066047809
"75",51242,"Ironwood (and vicinity), Michigan, United States of America",464,46.46336,-90.17084,"North America",0.065559932,0.065559932,0.065559932,0.085751766,0.065559932,0.065559932,0.065559932,0.065559932,0.065559932,0.065559932,0.065559932,0.065559932,0.066850421,0.065559932,0.065559932
"76",53629,"Kilimanjaro, Moshi, Tanzania",557,-3.128317,37.33981,"Africa",0.065578425,0.066728909,0.065578425,0.087501109,0.065578425,0.065578425,0.065578425,0.066728909,0.066728909,0.065578425,0.065578425,0.065578425,0.071418777,0.065578425,0.065578425
"77",53660,"Jerusalem, Israel",557,31.77991,35.20602,"Europe",0.057458074,0.057458074,0.064944556,0.096152382,0.061634412,0.072209245,0.057458074,0.061439436,0.061808551,0.057458074,0.080447538,0.06231587,0.117280181,0.057458074,0.074873092
"78",53877,"Syros Island, Greece",464,37.42341,24.91609,"Europe",0.065371783,0.066047413,0.066047413,0.073771671,0.065371783,0.065371783,0.065371783,0.065371783,0.065371783,0.065371783,0.065371783,0.065371783,0.093335073,0.065371783,0.065371783
"79",53908,"Santorini Island, Greece",464,36.419936,25.430659,"Europe",0.05578608,0.05578608,0.057788672,0.102486547,0.05578608,0.086816754,0.05578608,0.069408089,0.055986245,0.05578608,0.071588356,0.055897335,0.115531382,0.059575663,0.05578608
"80",53939,"Astypalaia Island, Greece",464,36.55911,26.31314,"Europe",0.065988578,0.065988578,0.068058972,0.068058972,0.065988578,0.065988578,0.065988578,0.065988578,0.065988578,0.065988578,0.065988578,0.065988578,0.082551725,0.065988578,0.065988578
"81",54652,"Kalbarri, Western Australia, Australia",557,-27.69008,114.201,"Australia",0.065846732,0.065846732,0.065846732,0.086132267,0.065846732,0.065846732,0.065846732,0.065846732,0.065846732,0.065846732,0.065846732,0.065846732,0.06836119,0.065846732,0.065846732
"82",55179,"Kendari, Indonesia",557,-3.985,122.549,"Asia",0.066769625,0.066769625,0.066769625,0.069621065,0.066769625,0.066769625,0.066769625,0.066769625,0.066769625,0.066769625,0.066769625,0.066769625,0.072472505,0.066769625,0.066769625
"83",56264,"Nanchang, China",557,28.65184,116.0101,"Asia",0.065779813,0.066773305,0.065779813,0.077701724,0.065779813,0.065779813,0.065779813,0.073231007,0.073231007,0.065779813,0.065779813,0.065779813,0.071740768,0.065779813,0.065779813
"84",56481,"Niigata, Japan",557,37.84869,139.0167,"Asia",0.065965861,0.065965861,0.065965861,0.067138469,0.065965861,0.065965861,0.065965861,0.065965861,0.065965861,0.065965861,0.065965861,0.065965861,0.073001508,0.065965861,0.065965861
"85",57969,"Kostroma, Russia",557,57.78633,40.95428,"Europe",0.065850658,0.068267868,0.065850658,0.068267868,0.065850658,0.065850658,0.065850658,0.065850658,0.065850658,0.065850658,0.065850658,0.065850658,0.07793671,0.065850658,0.065850658
"86",58000,"Khamis Mushait, Saudi Arabia",557,18.29017,42.72308,"Asia",0.066970688,0.066970688,0.066970688,0.066970688,0.066970688,0.066970688,0.066970688,0.066970688,0.066970688,0.066970688,0.066970688,0.066970688,0.066970688,0.066970688,0.066970688
"87",58341,"Kununurra, Western Australia, Australia",557,-15.56053,128.8505,"Australia",0.063715412,0.063715412,0.063715412,0.067071867,0.063715412,0.063715412,0.063715412,0.063715412,0.063715412,0.063715412,0.063715412,0.063715412,0.089843678,0.063715412,0.063715412
"88",59426,"Krasnodar, Russia",557,45.06319,38.97216,"Europe",0.06497982,0.085719396,0.088957039,0.069296677,0.06497982,0.06497982,0.06497982,0.066059034,0.066059034,0.06497982,0.085719396,0.066059034,0.082786856,0.085719396,0.06497982
"89",59736,"Kassel, Germany",557,51.31094,9.459151,"Europe",0.064282359,0.064282359,0.064282359,0.069565444,0.064282359,0.064282359,0.064282359,0.064352712,0.064282359,0.064282359,0.064282359,0.064282359,0.069565444,0.064282359,0.064282359
"90",60356,"Katowice, Poland",557,50.23679,19.01677,"Europe",0.064657026,0.064657026,0.066350792,0.073921724,0.064657026,0.075751024,0.064657026,0.064657026,0.064657026,0.064657026,0.075751024,0.068044559,0.072278977,0.064657026,0.064657026
"91",62433,"Lawton, Oklahoma, United States of America",557,34.65826,-98.43703,"North America",0.067134449,0.094430041,0.071164391,0.105710116,0.06180355,0.068147248,0.067134449,0.06180355,0.06180355,0.06180355,0.076689985,0.062393242,0.073681293,0.066581318,0.067556556
"92",62557,"Lubbock, Texas, United States of America",557,33.59001,-101.8626,"North America",0.061196067,0.061196067,0.073319196,0.11394367,0.061196067,0.105188261,0.071348086,0.065631154,0.061196067,0.061196067,0.079452956,0.071348086,0.075617436,0.061196067,0.061196067
"93",64231,"Lahore, Pakistan",557,31.52982,74.35329,"Asia",0.06393429,0.06393429,0.06393429,0.081714671,0.06393429,0.068742255,0.06393429,0.06393429,0.06393429,0.06393429,0.06393429,0.070689729,0.06393429,0.06393429,0.070689729
"94",65905,"Liverpool, England, United Kingdom",557,53.45375,-2.936515,"Europe",0.071617912,0.054201242,0.058825257,0.115225701,0.054137885,0.103611719,0.058980927,0.065415806,0.061782413,0.054137885,0.118812843,0.054137885,0.105962226,0.054137885,0.054137885
"95",65998,"Luang Prabang, Laos",557,19.87801,102.1461,"Asia",0.059541535,0.059541535,0.060296993,0.110657485,0.059541535,0.065939168,0.059541535,0.062114495,0.059541535,0.059541535,0.059541535,0.059919264,0.096659258,0.059541535,0.059541535
"96",66432,"La Serena (and vicinity), Chile",464,-29.930496,-71.274738,"South America",0.066313313,0.067432725,0.066313313,0.071781978,0.066313313,0.066313313,0.066313313,0.067407046,0.067407046,0.066313313,0.066313313,0.067407046,0.070031481,0.066313313,0.066313313
"97",67114,"Lusaka, Zambia",557,-15.40669,28.33163,"Africa",0.061219003,0.061219003,0.061968103,0.080284925,0.061219003,0.065187666,0.061219003,0.06600264,0.062193187,0.061219003,0.061219003,0.061219003,0.0684431,0.061219003,0.061219003
"98",67734,"Luxor, Egypt",557,25.68963,32.61804,"Africa",0.059840109,0.064791958,0.065189132,0.09669969,0.059840109,0.059852407,0.059840109,0.061829041,0.066662264,0.059840109,0.059840109,0.06063398,0.09432603,0.059840109,0.059840109
"99",67796,"Luoyang, China",557,34.28349,111.9959,"Asia",0.065924341,0.07037241,0.066665686,0.074079134,0.065924341,0.065924341,0.065924341,0.074079134,0.074079134,0.065924341,0.065924341,0.065924341,0.068889721,0.065924341,0.065924341
"100",69346,"Machala, Ecuador",557,-3.249661,-79.95928,"South America",0.066652995,0.066652995,0.066652995,0.069666859,0.066652995,0.066652995,0.066652995,0.066652995,0.066652995,0.066652995,0.066652995,0.066652995,0.066652995,0.066652995,0.066652995
"101",69439,"Macon (and vicinity), Georgia, United States of America",464,32.875856,-83.6892,"North America",0.064467879,0.06334653,0.06372585,0.107691462,0.06334653,0.06966857,0.06334653,0.067499854,0.06372585,0.06334653,0.066811772,0.06334653,0.068657004,0.06334653,0.06334653
"102",69532,"Montlucon, France",557,46.33879,2.603488,"Europe",0.06668242,0.06668242,0.06668242,0.06812563,0.06668242,0.06668242,0.06668242,0.06668242,0.06668242,0.06668242,0.06668242,0.06668242,0.06668242,0.06668242,0.06668242
"103",70741,"Mount Gambier, South Australia, Australia",557,-37.83,140.7895,"Australia",0.063568267,0.063568267,0.063568267,0.07269024,0.063568267,0.063568267,0.063568267,0.063568267,0.063568267,0.063568267,0.083123838,0.063568267,0.069421926,0.063568267,0.063568267
"104",71206,"Manhattan (and vicinity), Kansas, United States of America",464,39.18027,-96.563237,"North America",0.064532266,0.064532266,0.064532266,0.091456233,0.064532266,0.067711159,0.064532266,0.064532266,0.064532266,0.064532266,0.064532266,0.064532266,0.06937801,0.064532266,0.066477163
"105",71485,"Milan, Italy",557,45.46833,9.173051,"Europe",0.054152876,0.054322697,0.05643781,0.091757579,0.054216832,0.076445395,0.084166752,0.071249955,0.062535431,0.131583266,0.118397432,0.054775555,0.116630514,0.054152876,0.054152876
"106",72198,"Milwaukee, Wisconsin, United States of America",557,43.06527,-87.95989,"North America",0.05175624,0.058143973,0.079126236,0.128123992,0.053804458,0.111833358,0.05175624,0.076148629,0.057782374,0.051841034,0.110481392,0.052484307,0.081793854,0.052505946,0.076090062
"107",72601,"Manokwari, Indonesia",557,-0.861885,134.079,"Asia",0.0625,0.0625,0.0625,0.0625,0.0625,0.0625,0.0625,0.125,0.125,0.0625,0.0625,0.0625,0.125,0.0625,0.0625
"108",72911,"Morelia (and vicinity), Michoacan, Mexico",464,19.702885,-101.193266,"South America",0.062910847,0.065619796,0.070724135,0.079087174,0.062910847,0.079959777,0.062910847,0.062910847,0.062910847,0.062910847,0.069358015,0.063184071,0.082690888,0.062910847,0.073355633
"109",73035,"Monroe (and vicinity), Louisiana, United States of America",464,32.502362,-92.08289,"North America",0.061737847,0.061737847,0.066900809,0.124441378,0.061737847,0.066739341,0.084593842,0.062443495,0.066003314,0.061737847,0.093007139,0.062315081,0.101722118,0.061737847,0.066579802
"110",75298,"Missoula, Montana, United States of America",557,46.92574,-114.003,"North America",0.056439253,0.065261729,0.066327422,0.107865791,0.056439253,0.078255942,0.060451073,0.061457379,0.056439425,0.056439253,0.066290311,0.056439253,0.097897135,0.065270885,0.056439253
"111",76104,"Maun, Botswana",557,-19.98787,23.42274,"Africa",0.065198172,0.065198172,0.065198172,0.068101772,0.065198172,0.065198172,0.065198172,0.065198172,0.065198172,0.065198172,0.065198172,0.065198172,0.10842151,0.065198172,0.065198172
"112",76135,"Munich, Germany",557,48.15316,11.54726,"Europe",0.060535742,0.06566115,0.057971244,0.103248172,0.054625597,0.083067899,0.054625597,0.059700065,0.055078131,0.065763735,0.103017451,0.054625597,0.12361894,0.054625597,0.054852041
"113",77344,"Myrtle Beach, South Carolina, United States of America",557,33.72546,-78.89613,"North America",0.060889964,0.050808298,0.075202516,0.241704936,0.050766423,0.076128087,0.050766423,0.060712514,0.052591588,0.050766423,0.054235278,0.060816386,0.065688563,0.096792831,0.050766423
"114",77995,"Nagpur, India",557,21.1245,79.0875,"Asia",0.065781367,0.065781367,0.065781367,0.068060829,0.065781367,0.065781367,0.065781367,0.066921098,0.066921098,0.065781367,0.065781367,0.065781367,0.070340291,0.065781367,0.065781367
"115",78150,"Naples, Italy",557,40.85086,14.23781,"Europe",0.059871996,0.059871996,0.063849363,0.07885395,0.059871996,0.072772497,0.059871996,0.061445905,0.060654757,0.069733647,0.069587564,0.060898413,0.093815257,0.059871996,0.059871996
"116",79669,"Nanjing (prefecture), China",464,32.043892,118.778867,"Asia",0.064461561,0.065583468,0.068724806,0.075405157,0.064461561,0.064461561,0.064461561,0.070051369,0.069846712,0.064461561,0.064461561,0.067007233,0.077700056,0.064461561,0.064461561
"117",79855,"Nuevo Laredo, Tamaulipas, Mexico",557,27.44953,-99.54123,"South America",0.062637782,0.075085509,0.062637782,0.085576858,0.062637782,0.075468833,0.062637782,0.072448979,0.078989776,0.062637782,0.06811131,0.062637782,0.062637782,0.062637782,0.062637782
"118",79917,"Norfolk Island (all)",464,-29.041054,167.959123,"Australia",0.064016876,0.064016876,0.065495072,0.068451466,0.064016876,0.064016876,0.064016876,0.064955404,0.064016876,0.064016876,0.064016876,0.064016876,0.079169196,0.064016876,0.064016876
"119",80196,"Nan, Thailand",557,18.79328,100.7743,"Asia",0.065368705,0.065368705,0.065368705,0.065368705,0.065368705,0.065368705,0.065368705,0.065368705,0.065368705,0.065368705,0.065368705,0.065368705,0.068308152,0.065368705,0.065368705
"120",80258,"Nosara, Costa Rica",557,9.960187,-85.67142,"South America",0.062688085,0.062688085,0.067076695,0.077439442,0.062688085,0.062688085,0.062688085,0.062688085,0.062688085,0.062688085,0.062688085,0.062688085,0.074414232,0.062688085,0.062688085
"121",80475,"Novokuznetsk, Russia",557,53.79415,87.18195,"Europe",0.0669371,0.0669371,0.0669371,0.0669371,0.0669371,0.0669371,0.0669371,0.0669371,0.0669371,0.0669371,0.0669371,0.0669371,0.0669371,0.0669371,0.0669371
"122",80785,"Nakhon Si Thammarat, Thailand",557,8.449618,99.93372,"Asia",0.06562902,0.06562902,0.06562902,0.06562902,0.06562902,0.06562902,0.06562902,0.06562902,0.06562902,0.06562902,0.06562902,0.06562902,0.068741376,0.06562902,0.06562902
"123",81560,"Nyaung-U, Myanmar",557,21.19927,94.91461,"Asia",0.064679018,0.064679018,0.064679018,0.066088858,0.064679018,0.064679018,0.064679018,0.064679018,0.064679018,0.064679018,0.064679018,0.064679018,0.066088858,0.064679018,0.064679018
"124",81684,"Oaxaca, Oaxaca, Mexico",557,17.06267,-96.71957,"South America",0.0603483,0.0603483,0.073551677,0.075758939,0.0603483,0.091447888,0.0603483,0.063098117,0.061013349,0.0603483,0.09126825,0.061013349,0.131702712,0.0603483,0.0603483
"125",81839,"Ocho Rios, Jamaica",557,18.41611,-77.11572,"South America",0.048640409,0.052112176,0.191210435,0.110779457,0.048640409,0.065212069,0.048640409,0.068013424,0.059992575,0.048640409,0.048680426,0.049465798,0.090243524,0.048645867,0.048640409
"126",81963,"Oak Harbor, Washington, United States of America",557,48.31589,-122.6376,"North America",0.061753003,0.061753003,0.061753003,0.064931101,0.061753003,0.061753003,0.061753003,0.061753003,0.061753003,0.061753003,0.068763022,0.061753003,0.061753003,0.061753003,0.061753003
"127",82893,"Omaha (and vicinity), Nebraska, United States of America",464,41.25235,-96.02186,"North America",0.089530133,0.091008963,0.059177116,0.128121112,0.056095679,0.072208178,0.05798962,0.070063007,0.064098111,0.056328896,0.07466532,0.056657667,0.073713521,0.059594228,0.129025483
"128",83482,"Norfolk, Virginia, United States of America",557,36.90712,-76.2547,"North America",0.061042807,0.061042807,0.06548191,0.123235626,0.061042807,0.072253942,0.061042807,0.066704123,0.061280271,0.061042807,0.072618528,0.061042807,0.06672888,0.061042807,0.061357901
"129",83792,"Oshkosh, Wisconsin, United States of America",557,44.00908,-88.58203,"North America",0.059500837,0.059500837,0.059500837,0.087149492,0.059500837,0.069096386,0.059500837,0.060822494,0.059500837,0.059500837,0.076827469,0.069096386,0.110026677,0.064051669,0.090041617
"130",84505,"Oviedo (and vicinity), Spain",464,43.363059,-5.85306,"Europe",0.06509042,0.06509042,0.065548023,0.072869672,0.06509042,0.06509042,0.06509042,0.06509042,0.06509042,0.06509042,0.06985632,0.06509042,0.077445703,0.06509042,0.06509042
"131",85001,"Puebla (and vicinity), Puebla, Mexico",464,19.044319,-98.2201,"South America",0.064676633,0.064841361,0.066790831,0.074039023,0.064489865,0.068170877,0.064489865,0.065640389,0.065640348,0.064489865,0.064679116,0.065640348,0.073190661,0.064489865,0.064489865
"132",85404,"Pucallpa, Peru",557,-8.361413,-74.57972,"South America",0.062111801,0.124223603,0.124223603,0.062111801,0.062111801,0.062111801,0.062111801,0.062111801,0.062111801,0.062111801,0.062111801,0.062111801,0.124223603,0.062111801,0.062111801
"133",86334,"Ponta Grossa, Brazil",557,-25.13716,-50.06645,"South America",0.066752652,0.066752652,0.066752652,0.066752652,0.066752652,0.066752652,0.066752652,0.066752652,0.066752652,0.066752652,0.066752652,0.066752652,0.072421586,0.066752652,0.066752652
"134",86365,"Port Harcourt, Nigeria",557,4.817473,7.03522,"Africa",0.066485696,0.066485696,0.066485696,0.072876153,0.066485696,0.066485696,0.066485696,0.067550772,0.067550772,0.066485696,0.066485696,0.066485696,0.070746001,0.066485696,0.066485696
"135",87698,"Pemba Island, Tanzania",557,-5.176836,39.75418,"Africa",0.066643658,0.066643658,0.066643658,0.069583105,0.066643658,0.066643658,0.066643658,0.066643658,0.066643658,0.066643658,0.066643658,0.066643658,0.069583105,0.066643658,0.066643658
"136",88008,"Pamplona (and vicinity), Spain",464,42.81396,-1.645061,"Europe",0.064588086,0.064588086,0.065760694,0.072520625,0.064588086,0.064588086,0.064588086,0.064625297,0.064588086,0.064588086,0.064588086,0.064588086,0.079245685,0.064588086,0.064588086
"137",88070,"Phnom Penh, Cambodia",557,11.55329,104.8704,"Asia",0.059222782,0.071282581,0.075174365,0.08571565,0.059222782,0.062686819,0.059222782,0.063512766,0.062337743,0.059222782,0.059222782,0.063436857,0.109868376,0.059222782,0.059222782
"138",88907,"Puerto Princesa, Philippines",557,9.973703,118.821,"Asia",0.062871548,0.062871548,0.062871548,0.080199043,0.062871548,0.065422166,0.062871548,0.062871548,0.062871548,0.062871548,0.062871548,0.062871548,0.126610465,0.062871548,0.062871548
"139",89279,"Pretoria, South Africa",557,-25.7472,28.24784,"Africa",0.064615502,0.065582091,0.067515267,0.073581963,0.064615502,0.064615502,0.064615502,0.064615502,0.064615502,0.064615502,0.064615502,0.065582091,0.093769491,0.064615502,0.078948471
"140",92689,"Yangon, Myanmar",557,16.8687,96.18923,"Asia",0.06128479,0.06128479,0.061827619,0.063998936,0.06128479,0.06128479,0.066711165,0.06576769,0.062913278,0.06128479,0.066711165,0.067253994,0.074476564,0.06128479,0.075540537
"141",92782,"Rhodes Island, Greece",464,36.40009,28.187528,"Europe",0.058500351,0.05879583,0.062983535,0.087956784,0.058500351,0.060753066,0.058500351,0.06392469,0.063294739,0.058500351,0.062476821,0.058927263,0.109968801,0.064136913,0.058500351
"142",93433,"Rimini, Italy",557,44.04332,12.53376,"Europe",0.063654843,0.063753072,0.065077643,0.076306061,0.063654843,0.063654843,0.063654843,0.064058349,0.06375466,0.063654843,0.063654843,0.069548579,0.079862617,0.063654843,0.063654843
"143",93774,"Rochester, New York, United States of America",557,43.17537,-77.64826,"North America",0.05612956,0.05612956,0.060575663,0.13271254,0.072766011,0.080350877,0.070221834,0.058876786,0.056533728,0.05612956,0.074446395,0.05678731,0.071857333,0.05612956,0.072282943
"144",93991,"Rostov-on-Don, Russia",557,47.23912,39.67801,"Europe",0.065822947,0.067727709,0.067727709,0.06963247,0.065822947,0.065822947,0.065822947,0.067727709,0.067727709,0.065822947,0.065822947,0.067727709,0.073441994,0.065822947,0.065822947
"145",95324,"San Salvador, El Salvador",557,13.64538,-89.17981,"South America",0.062103563,0.063425528,0.072553957,0.0968641,0.062103563,0.066226845,0.062103563,0.063101097,0.062710201,0.062103563,0.065098811,0.062764546,0.080866045,0.062103563,0.078727478
"146",95789,"San Luis Obispo, California, United States of America",557,35.26423,-120.7014,"North America",0.054786686,0.054786686,0.062314137,0.116071773,0.054786686,0.063548132,0.079846745,0.057325995,0.055183298,0.054786686,0.080685413,0.054810292,0.087054719,0.054786686,0.054786686
"147",97742,"Shenyang, China",557,41.96069,123.1161,"Asia",0.063174046,0.062744062,0.070119358,0.112328591,0.062489505,0.066788714,0.062489505,0.065035071,0.065035071,0.062489505,0.076763692,0.069022003,0.078064727,0.063174046,0.062489505
"148",97959,"Sheridan (and vicinity), Wyoming, United States of America",464,44.80386,-106.93957,"North America",0.06013446,0.066603775,0.06013446,0.075226376,0.06013446,0.084204489,0.06013446,0.060743532,0.06013446,0.06013446,0.084415876,0.06013446,0.087517266,0.064526732,0.06013446
"149",99292,"Salta (and vicinity), Argentina",464,-24.788232,-65.409095,"South America",0.065790605,0.067127587,0.066976387,0.071126626,0.065790605,0.065790605,0.065790605,0.065790605,0.065790605,0.065790605,0.065790605,0.066383496,0.079275041,0.065790605,0.065790605
"150",99323,"Salt Lake City, Utah, United States of America",557,40.7424,-111.8529,"North America",0.050690182,0.050778787,0.056374502,0.145428329,0.057207123,0.071605311,0.050690182,0.059918676,0.05145764,0.050881358,0.082864639,0.050961788,0.076968265,0.051837435,0.051620825
"151",99416,"Saranac Lake, New York, United States of America",557,44.34541,-74.25569,"North America",0.057530866,0.057530866,0.057530866,0.093330824,0.057530866,0.057530866,0.057530866,0.057530866,0.057530866,0.057530866,0.064108854,0.057530866,0.104729628,0.057530866,0.057530866
"152",100005,"Ile Sainte-Marie, Madagascar",557,-16.91427,49.89516,"Africa",0.051807153,0.051807153,0.064175374,0.11364826,0.051807153,0.064175374,0.051807153,0.051807153,0.051807153,0.051807153,0.063671367,0.112726986,0.121935527,0.051807153,0.051807153
"153",100656,"Sorong, Indonesia",557,-0.865999,131.3223,"Asia",0.064935065,0.064935065,0.064935065,0.064935065,0.064935065,0.064935065,0.064935065,0.064935065,0.064935065,0.064935065,0.064935065,0.064935065,0.064935065,0.064935065,0.064935065
"154",100904,"Saipan, Northern Mariana Islands",464,15.214391,145.71739,"Australia",0.0647267,0.074449544,0.065472579,0.073864142,0.0647267,0.0647267,0.0647267,0.0647267,0.0647267,0.0647267,0.0647267,0.0647267,0.072401241,0.0647267,0.0647267
"155",101028,"Split, Croatia",557,43.51387,16.50192,"Europe",0.056578067,0.058461062,0.057545639,0.073991857,0.056578067,0.056758519,0.06090695,0.061236563,0.061045175,0.056578067,0.067730946,0.057130966,0.115168789,0.056578067,0.056578067
"156",101245,"Semarang, Indonesia",557,-7.01115,110.3905,"Asia",0.062757659,0.062757659,0.063281411,0.079539805,0.062757659,0.062757659,0.062757659,0.068577244,0.063281411,0.077546172,0.072250339,0.062757659,0.07727339,0.062757659,0.062757659
"157",102485,"Suva, Fiji",557,-18.12069,178.4536,"Australia",0.064342925,0.064342925,0.067391706,0.068407966,0.064342925,0.064342925,0.064342925,0.064342925,0.064342925,0.064342925,0.064342925,0.064342925,0.069424226,0.064342925,0.064342925
"158",103694,"Sydney, New South Wales, Australia",557,-33.867,151.2108,"Australia",0.048666679,0.051519979,0.066039746,0.128447896,0.049443998,0.084002967,0.064457703,0.072117466,0.047252834,0.133095265,0.081963233,0.046910052,0.122874988,0.046168267,0.05207757
"159",104655,"Tartu, Estonia",557,58.37468,26.72553,"Europe",0.065127124,0.065127124,0.066322724,0.067518324,0.065127124,0.065127124,0.065127124,0.065127124,0.065127124,0.065127124,0.08017866,0.065127124,0.072300725,0.065127124,0.065127124
"160",106670,"Taif, Saudi Arabia",557,21.39462,40.51751,"Asia",0.066387699,0.066387699,0.067577467,0.069957003,0.066387699,0.066387699,0.066387699,0.066387699,0.066387699,0.066387699,0.066387699,0.067577467,0.069957003,0.066387699,0.066387699
"161",106732,"Tijuana (and vicinity), Baja California Norte, Mexico",464,32.519478,-117.012133,"South America",0.058423686,0.068754049,0.074006328,0.098241464,0.058423686,0.083028284,0.058423686,0.074286752,0.070457482,0.058423686,0.073377054,0.05877027,0.081257834,0.058423686,0.058423686
"162",107290,"Tok, Alaska, United States of America",557,63.32952,-142.996,"North America",0.066395101,0.066395101,0.066395101,0.09219024,0.066395101,0.066395101,0.066395101,0.066395101,0.066395101,0.066395101,0.066395101,0.066395101,0.066395101,0.066395101,0.066395101
"163",107755,"Tlemcen, Algeria",557,34.87365,-1.302338,"Africa",0.062893082,0.062893082,0.062893082,0.125786163,0.062893082,0.062893082,0.062893082,0.125786163,0.125786163,0.062893082,0.062893082,0.062893082,0.062893082,0.062893082,0.062893082
"164",108189,"Sao Tome Island, Sao Tome and Principe",557,0.220876,6.619432,"Africa",0.065897565,0.065897565,0.065897565,0.065897565,0.065897565,0.065897565,0.065897565,0.068485557,0.068485557,0.065897565,0.065897565,0.065897565,0.076407847,0.065897565,0.065897565
"165",108623,"Antananarivo, Madagascar",557,-18.90039,47.51458,"Africa",0.061968003,0.062591328,0.063214653,0.074031584,0.061968003,0.061968003,0.061968003,0.062591328,0.062591328,0.061968003,0.061968003,0.062591328,0.094008388,0.061968003,0.075388438
"166",108685,"Tioman Island, Malaysia",557,2.789838,104.1765,"Asia",0.06263826,0.057483177,0.057656889,0.112765519,0.057483177,0.057483177,0.057483177,0.057483177,0.057483177,0.057483177,0.057483177,0.057483177,0.088596411,0.057483177,0.057483177
"167",110049,"Timisoara, Romania",557,45.73935,21.28229,"Europe",0.062070076,0.062739196,0.068173637,0.064077437,0.062070076,0.075803089,0.075803089,0.068842757,0.070832172,0.074197881,0.081219341,0.062404636,0.079308761,0.062070076,0.062070076
"168",110266,"Tottori, Japan",557,35.43969,134.1547,"Asia",0.064805356,0.064805356,0.064805356,0.064805356,0.064805356,0.064805356,0.087927922,0.064805356,0.064805356,0.064805356,0.087927922,0.064805356,0.067816497,0.064805356,0.064805356
"169",110793,"Tunis, Tunisia",557,36.80352,10.17164,"Africa",0.063874251,0.063874251,0.066051951,0.069135246,0.063874251,0.064272149,0.063874251,0.064600151,0.064600151,0.063874251,0.063874251,0.064600151,0.08903073,0.063874251,0.063874251
"170",110824,"Taupo, New Zealand",557,-38.69542,176.0834,"Australia",0.057780816,0.057780816,0.058129248,0.11830207,0.057780816,0.058807155,0.057780816,0.061141746,0.058191269,0.057780816,0.057780816,0.058129248,0.09515908,0.057780816,0.057780816
"171",111258,"Tawau, Malaysia",557,4.332791,117.9588,"Asia",0.066506436,0.066506436,0.066506436,0.067884416,0.066506436,0.066506436,0.066506436,0.066506436,0.066506436,0.066506436,0.066506436,0.066506436,0.069262395,0.066506436,0.066506436
"172",111878,"Columbus (and vicinity), Mississippi, United States of America",464,33.516849,-88.427,"North America",0.061373559,0.068334448,0.061969684,0.09657099,0.066099579,0.073261558,0.071105282,0.061389703,0.065536894,0.061373559,0.076995403,0.070953519,0.088699812,0.061373559,0.065536894
"173",114606,"Valdez, Alaska, United States of America",557,61.1273,-146.3214,"North America",0.05921159,0.05921159,0.062877154,0.070051496,0.05921159,0.070798307,0.05921159,0.05921159,0.05921159,0.05921159,0.062877154,0.05921159,0.111731309,0.05921159,0.05921159
"174",114978,"Spanish Town, Virgin Gorda, British Virgin Islands",557,18.46826,-64.41988,"South America",0.062872644,0.062872644,0.062872644,0.069556558,0.062872644,0.062872644,0.062872644,0.062872644,0.062872644,0.062872644,0.062872644,0.062872644,0.064056636,0.062872644,0.062872644
"175",116125,"Vientiane, Laos",557,17.98119,102.609,"Asia",0.060804541,0.061381774,0.060804541,0.064845178,0.060804541,0.072469465,0.060804541,0.060804541,0.060804541,0.060804541,0.060804541,0.071095191,0.101007545,0.060804541,0.060804541
"176",116404,"Sao Vicente, Cape Verde",557,16.8436,-24.9848,"Africa",0.065555904,0.065555904,0.065555904,0.072698761,0.065555904,0.065555904,0.065555904,0.065555904,0.065555904,0.065555904,0.065555904,0.065555904,0.077460666,0.065555904,0.065555904
"177",118512,"Worland (and vicinity), Wyoming, United States of America",464,44.02078,-107.95581,"North America",0.063903721,0.063903721,0.066703633,0.080692548,0.063903721,0.066703633,0.063903721,0.064072415,0.063903721,0.063903721,0.063903721,0.063903721,0.078039463,0.063988163,0.063903721
"178",121643,"Deer Lake, Newfoundland and Labrador, Canada",557,49.16787,-57.45962,"North America",0.06416735,0.06416735,0.06416735,0.078791289,0.06416735,0.06416735,0.06416735,0.06416735,0.06416735,0.06416735,0.06416735,0.06416735,0.06561056,0.06416735,0.06416735
"179",122976,"Hamilton (and vicinity), Ontario, Canada",464,43.25761,-79.8723,"North America",0.060632692,0.060632692,0.067234703,0.108935067,0.060632692,0.084915332,0.061873466,0.071943315,0.061000732,0.060632692,0.088719143,0.061796904,0.068945407,0.060632692,0.060632692
"180",123255,"Yichang, China",557,30.74599,111.1464,"Asia",0.064135926,0.068929789,0.064135926,0.073723653,0.064135926,0.064135926,0.064135926,0.076919563,0.076919563,0.064135926,0.064135926,0.064135926,0.068929789,0.064135926,0.064135926
"181",123472,"Kamloops (and vicinity), British Columbia, Canada",464,50.67158,-120.352141,"North America",0.059235909,0.067337272,0.062680586,0.118071177,0.059235909,0.065553462,0.059235909,0.069049199,0.060639369,0.059235909,0.063789698,0.059235909,0.067736371,0.063627982,0.059235909
"182",123627,"Yankton, South Dakota, United States of America",557,42.91335,-97.45016,"North America",0.062374326,0.07360797,0.062374326,0.083726735,0.062374326,0.062374326,0.062374326,0.062374326,0.062374326,0.062374326,0.075811133,0.062374326,0.09948104,0.062374326,0.062374326
"183",124402,"Yanbu, Saudi Arabia",557,24.39513,37.97019,"Asia",0.065188383,0.065188383,0.065188383,0.119076155,0.065188383,0.065188383,0.065188383,0.065188383,0.065188383,0.065188383,0.065188383,0.065188383,0.065188383,0.065188383,0.065188383
"184",124681,"Yantai, China",557,37.43834,120.8135,"Asia",0.065380821,0.066667905,0.066667905,0.072459783,0.065380821,0.065380821,0.065380821,0.071172699,0.071172699,0.065380821,0.065380821,0.065854904,0.070529157,0.065380821,0.065380821
"185",124929,"Prince Albert, Saskatchewan, Canada",557,53.20098,-105.7214,"North America",0.064759763,0.07095574,0.064759763,0.077246411,0.064759763,0.075798572,0.064759763,0.071482241,0.065938036,0.064759763,0.066949364,0.064759763,0.064759763,0.064759763,0.064759763
"186",125797,"Thunder Bay, Ontario, Canada",557,48.42465,-89.29774,"North America",0.057763348,0.058344675,0.059189729,0.142894428,0.057763348,0.06231096,0.057763348,0.065143522,0.058534919,0.057763348,0.057763348,0.057763348,0.067597056,0.061646609,0.057763348
"187",126138,"Red Lake, Ontario, Canada",557,51.05653,-93.72749,"North America",0.066545753,0.066545753,0.066545753,0.069637899,0.066545753,0.066545753,0.066545753,0.066545753,0.066545753,0.066545753,0.066545753,0.066545753,0.066545753,0.066545753,0.066545753
"188",127223,"Bonaventure, Quebec, Canada",557,48.0562,-65.45954,"North America",0.065769711,0.065769711,0.065769711,0.065769711,0.065769711,0.065769711,0.065769711,0.065769711,0.065769711,0.065769711,0.065769711,0.065769711,0.067353493,0.065769711,0.065769711
"189",127781,"Medicine Hat (and vicinity), Alberta, Canada",464,50.00836,-110.66437,"North America",0.060454765,0.071552186,0.060454765,0.114627033,0.060454765,0.060454765,0.060454765,0.065585978,0.068689271,0.060454765,0.070858456,0.060454765,0.076585167,0.062901649,0.060454765
"190",127998,"Prince George, British Columbia, Canada",557,53.92054,-122.7537,"North America",0.057338471,0.06041788,0.058021531,0.093367646,0.057338471,0.071490491,0.065970368,0.06495325,0.057338471,0.057338471,0.065970368,0.057338471,0.094279052,0.057338471,0.057338471
"191",128029,"Terrace, British Columbia, Canada",557,54.50383,-128.6105,"North America",0.065561201,0.065561201,0.065561201,0.066879593,0.065561201,0.065561201,0.065561201,0.065561201,0.065561201,0.065561201,0.065561201,0.065561201,0.081491342,0.065561201,0.065561201
"192",128060,"London (and vicinity), Ontario, Canada",464,42.98282,-81.23937,"North America",0.059740672,0.060426941,0.063317231,0.124752991,0.059740672,0.075218156,0.059740672,0.064839866,0.059740672,0.059740672,0.076647349,0.060780768,0.062340911,0.059740672,0.059740672
"193",128277,"Fort Nelson, British Columbia, Canada",557,58.80358,-122.7029,"North America",0.064897472,0.064897472,0.064897472,0.073587733,0.064897472,0.064897472,0.064897472,0.070702304,0.064897472,0.064897472,0.064897472,0.064897472,0.067634199,0.064897472,0.064897472
"194",128649,"Yellowknife, Northwest Territories, Canada",557,62.45193,-114.3839,"North America",0.060840192,0.060840192,0.070114332,0.06583947,0.060840192,0.08032351,0.060840192,0.070728027,0.060840192,0.060840192,0.065808209,0.060840192,0.128425376,0.060840192,0.060840192
"195",129765,"Manzanillo (and vicinity), Colima, Mexico",464,19.105027,-104.3481,"South America",0.05922666,0.077623631,0.068651471,0.083899466,0.05922666,0.067505706,0.05922666,0.06098788,0.060208303,0.05922666,0.05922666,0.059553874,0.094225878,0.05922666,0.05922666
"196",130974,"Gzira, Malta",557,35.9043,14.49682,"Europe",0.061885196,0.062964411,0.062964411,0.067624588,0.061885196,0.061885196,0.061885196,0.066382176,0.061885695,0.061885196,0.061885196,0.061885196,0.071129628,0.061885196,0.061885196
"197",131470,"Bad Brueckenau, Germany",557,50.30716,9.774504,"Europe",0.066066232,0.066066232,0.066066232,0.06727367,0.066066232,0.066066232,0.066066232,0.066066232,0.066066232,0.066066232,0.066066232,0.066066232,0.070895984,0.066066232,0.066066232
"198",132493,"Ambleside, England, United Kingdom",557,54.42879,-3.027857,"Europe",0.061563115,0.061563115,0.062145221,0.067056088,0.061563115,0.061563115,0.061563115,0.069484051,0.061563115,0.061563115,0.061563115,0.061563115,0.068665918,0.061563115,0.061563115
"199",133361,"Vitznau, Switzerland",557,47.01501,8.488104,"Europe",0.065946409,0.065946409,0.065946409,0.065946409,0.065946409,0.065946409,0.065946409,0.065946409,0.065946409,0.065946409,0.065946409,0.065946409,0.067389619,0.065946409,0.065946409
"200",133454,"Puerto de Pollensa, Spain",557,39.89069,3.083159,"Europe",0.058534992,0.058534992,0.098068748,0.136343839,0.058534992,0.058534992,0.058534992,0.067265156,0.058997805,0.058534992,0.058534992,0.058534992,0.069786661,0.0589173,0.058534992
"201",133516,"Nervi, Genoa, Italy",774,44.38771,9.024632,"Europe",0.066321602,0.066321602,0.066321602,0.069998523,0.066321602,0.066321602,0.066321602,0.066321602,0.066321602,0.066321602,0.066321602,0.066321602,0.072449804,0.066321602,0.066321602
"202",133981,"Ullapool, Scotland, United Kingdom",557,57.99128,-5.178801,"Europe",0.065120172,0.065120172,0.065120172,0.077771536,0.065120172,0.065120172,0.065120172,0.07006579,0.065120172,0.065120172,0.065120172,0.065120172,0.067989613,0.065120172,0.065120172
"203",136337,"Peguera, Spain",774,39.53883,2.454468,"Europe",0.064179701,0.064719308,0.071906286,0.080969585,0.071723444,0.075128606,0.064179701,0.064719308,0.064719308,0.064179701,0.064179701,0.064719308,0.073353023,0.064719308,0.064179701
"204",137701,"Schliersee, Germany",557,47.68731,11.87512,"Europe",0.065395923,0.065395923,0.065395923,0.069410778,0.065395923,0.065395923,0.065395923,0.066399637,0.066399637,0.065395923,0.065395923,0.065395923,0.07147982,0.065395923,0.065395923
"205",138786,"Rize, Turkey",557,40.95048,40.56238,"Europe",0.066963968,0.066963968,0.066963968,0.068497946,0.066963968,0.066963968,0.066963968,0.066963968,0.066963968,0.066963968,0.066963968,0.066963968,0.068497946,0.066963968,0.066963968
"206",138972,"Meyrin, Switzerland",557,46.23224,6.079154,"Europe",0.062329811,0.084823956,0.062329811,0.070626548,0.062329811,0.062329811,0.062329811,0.072488911,0.062329811,0.062329811,0.062329811,0.062329811,0.074868713,0.062329811,0.062329811
"207",139003,"Montreux, Switzerland",557,46.44989,6.937726,"Europe",0.05597429,0.099254767,0.061362958,0.072554601,0.093061028,0.104677058,0.059851099,0.058454852,0.062327279,0.05597429,0.070693268,0.05645645,0.127429986,0.05597429,0.05597429
"208",139778,"Meudon, France",557,48.80414,2.227381,"Europe",0.066792329,0.066792329,0.066792329,0.066792329,0.066792329,0.066792329,0.066792329,0.066792329,0.066792329,0.066792329,0.066792329,0.066792329,0.068227049,0.066792329,0.066792329
"209",139995,"Mardin, Turkey",557,37.28683,40.79008,"Europe",0.066848256,0.066848256,0.066848256,0.068317548,0.066848256,0.066848256,0.066848256,0.066848256,0.066848256,0.066848256,0.066848256,0.066848256,0.066848256,0.066848256,0.066848256
"210",141483,"Barnstaple, England, United Kingdom",557,51.1021,-3.987432,"Europe",0.065271927,0.065271927,0.065271927,0.076543531,0.065271927,0.065271927,0.065271927,0.065271927,0.065271927,0.065271927,0.065271927,0.065271927,0.072480866,0.065271927,0.065271927
"211",141855,"Bishop's Stortford, England, United Kingdom",557,51.87519,0.204597,"Europe",0.058326089,0.058326089,0.062898208,0.118066329,0.058326089,0.058326089,0.058326089,0.072519727,0.058326089,0.058326089,0.059598468,0.058326089,0.062379901,0.058326089,0.058326089
"212",142010,"Borehamwood, England, United Kingdom",557,51.65841,-0.280497,"Europe",0.061699409,0.061699409,0.061699409,0.11866417,0.061699409,0.065998126,0.061699409,0.063101147,0.063101147,0.061699409,0.061699409,0.063101147,0.074351379,0.061699409,0.061699409
"213",142134,"Bradford-on-Avon, England, United Kingdom",557,51.36045,-2.262277,"Europe",0.064872223,0.064872223,0.064872223,0.08157728,0.064872223,0.064872223,0.064872223,0.064872223,0.064872223,0.064872223,0.064872223,0.064872223,0.067643842,0.064872223,0.064872223
"214",142568,"Cannock, England, United Kingdom",557,52.70093,-2.010667,"Europe",0.063612909,0.063612909,0.063612909,0.077786571,0.063612909,0.065457348,0.063612909,0.073257647,0.063612909,0.063612909,0.063612909,0.063612909,0.06651651,0.063612909,0.063612909
"215",142723,"Chichester, England, United Kingdom",557,50.84674,-0.796783,"Europe",0.063166287,0.063166287,0.063166287,0.067501183,0.063166287,0.063192127,0.063166287,0.063166287,0.063166287,0.063166287,0.095586385,0.063166287,0.072116835,0.063166287,0.063166287
"216",143374,"Dartmouth, England, United Kingdom",557,50.34466,-3.596709,"Europe",0.064949346,0.064949346,0.064949346,0.081100607,0.064949346,0.064949346,0.064949346,0.066775139,0.064949346,0.064949346,0.064949346,0.064949346,0.06640984,0.064949346,0.064949346
"217",143467,"Dorking, England, United Kingdom",557,51.18887,-0.350964,"Europe",0.063855412,0.063855412,0.063855412,0.081496134,0.063855412,0.063855412,0.063855412,0.064061794,0.063855412,0.063855412,0.063855412,0.063855412,0.072018601,0.063855412,0.063855412
"218",144428,"Hemel Hempstead, England, United Kingdom",557,51.75485,-0.484531,"Europe",0.063127805,0.063127805,0.063127805,0.121432428,0.063127805,0.063127805,0.063127805,0.063127805,0.063127805,0.063127805,0.063127805,0.063127805,0.09547031,0.063127805,0.063127805
"219",144924,"Alanya, Turkey",557,36.5825,32.13989,"Europe",0.065062849,0.065062849,0.066082508,0.087686337,0.065062849,0.065062849,0.065062849,0.068937876,0.068937553,0.065062849,0.065062849,0.065878576,0.073107829,0.065470712,0.065062849
"220",145048,"Letchworth, England, United Kingdom",557,51.97821,-0.22531,"Europe",0.065096903,0.065096903,0.065096903,0.072162891,0.065096903,0.065096903,0.065096903,0.065096903,0.065096903,0.065096903,0.065096903,0.065096903,0.065096903,0.065096903,0.065096903
"221",146257,"Oeiras, Portugal",557,38.71061,-9.276484,"Europe",0.063500567,0.064516827,0.063500567,0.084605229,0.063500567,0.063500567,0.063500567,0.068555312,0.063500567,0.063500567,0.063500567,0.063500567,0.069598128,0.063500567,0.063500567
"222",146908,"Autun, France",557,46.94528,4.311471,"Europe",0.06558013,0.06558013,0.06558013,0.06558013,0.06558013,0.06558013,0.06558013,0.06558013,0.06558013,0.06558013,0.06558013,0.06558013,0.06558013,0.06558013,0.06558013
"223",148148,"Chantilly, France",557,49.1762,2.481431,"Europe",0.066392618,0.066392618,0.066392618,0.066392618,0.066392618,0.066392618,0.066392618,0.066392618,0.066392618,0.066392618,0.066392618,0.066392618,0.066392618,0.066392618,0.066392618
"224",148954,"Fontainebleau, France",557,48.40533,2.679514,"Europe",0.065258655,0.065258655,0.076674818,0.06762664,0.065258655,0.076674818,0.065258655,0.065258655,0.065258655,0.065258655,0.076674818,0.065258655,0.069994625,0.065258655,0.065258655
"225",149605,"Ivry-sur-Seine, France",557,48.81237,2.38765,"Europe",0.065876652,0.065876652,0.065876652,0.08844133,0.065876652,0.065876652,0.065876652,0.065876652,0.065876652,0.065876652,0.065876652,0.067180943,0.071093816,0.065876652,0.065876652
"226",150008,"Slagelse, Denmark",557,55.40724,11.35737,"Europe",0.066928965,0.066928965,0.066928965,0.069832566,0.066928965,0.066928965,0.066928965,0.066928965,0.066928965,0.066928965,0.066928965,0.066928965,0.069832566,0.066928965,0.066928965
"227",151000,"Wantage, England, United Kingdom",557,51.58177,-1.429713,"Europe",0.064562349,0.064562349,0.064562349,0.079577105,0.064562349,0.064562349,0.064562349,0.064562349,0.064562349,0.064562349,0.064562349,0.064562349,0.065956077,0.064562349,0.064562349
"228",151434,"Riva del Garda, Italy",557,45.88571,10.82472,"Europe",0.064085307,0.064085307,0.064085307,0.078225282,0.064085307,0.064356907,0.064085307,0.065229679,0.064085307,0.064085307,0.064085307,0.065427274,0.076188614,0.064085307,0.064085307
"229",152581,"Abano Terme, Italy",557,45.3586,11.79293,"Europe",0.065854197,0.065854197,0.065854197,0.074196936,0.065854197,0.065854197,0.065854197,0.066835696,0.066835696,0.065854197,0.065854197,0.066344946,0.078122931,0.065854197,0.065854197
"230",153108,"Colle di Val d'Elsa, Italy",557,43.39223,11.0944,"Europe",0.065766478,0.065766478,0.065766478,0.070448705,0.065766478,0.065766478,0.065766478,0.065766478,0.065766478,0.065766478,0.065766478,0.065766478,0.074183692,0.065766478,0.065766478
"231",153387,"Akcakoca, Turkey",557,41.06403,31.15653,"Europe",0.066514028,0.066514028,0.066514028,0.069453475,0.066514028,0.066514028,0.066514028,0.066514028,0.066514028,0.066514028,0.066514028,0.066514028,0.069453475,0.066514028,0.066514028
"232",156084,"Ouranoupoli, Aristotelis, Greece",557,40.33961,23.97368,"Europe",0.065678741,0.065678741,0.065678741,0.074053134,0.065678741,0.065678741,0.065678741,0.065678741,0.065678741,0.065678741,0.065678741,0.065678741,0.07031567,0.065678741,0.065678741
"233",156549,"Halle an der Saale, Germany",557,51.47994,11.96808,"Europe",0.065319017,0.065319017,0.066374871,0.096461543,0.065319017,0.065319017,0.065319017,0.065319017,0.065319017,0.065319017,0.065319017,0.065319017,0.07271,0.065319017,0.065319017
"234",156859,"Willingen, Germany",557,51.29128,8.655777,"Europe",0.066196608,0.066196608,0.066196608,0.073031878,0.066196608,0.066196608,0.066196608,0.066196608,0.066196608,0.066196608,0.066196608,0.066196608,0.070753455,0.066196608,0.066196608
"235",157231,"Zamosc, Poland",557,50.74199,23.27403,"Europe",0.066255449,0.066255449,0.066255449,0.069011409,0.066255449,0.066255449,0.066255449,0.067633429,0.067633429,0.066255449,0.066255449,0.066255449,0.070389389,0.066255449,0.066255449
"236",158378,"Steyr, Austria",557,48.0539,14.42135,"Europe",0.065986561,0.065986561,0.065986561,0.065986561,0.065986561,0.065986561,0.065986561,0.065986561,0.065986561,0.065986561,0.065986561,0.065986561,0.097441476,0.065986561,0.065986561
"237",160610,"Mechelen, Belgium",557,51.02876,4.450268,"Europe",0.065453959,0.065453959,0.065453959,0.067374447,0.065453959,0.077937935,0.065453959,0.065453959,0.065453959,0.065453959,0.077937935,0.065453959,0.074126045,0.065453959,0.065453959
"238",161292,"Nafplio, Greece",557,37.53139,22.91196,"Europe",0.059730542,0.059933181,0.061554287,0.080763518,0.059730542,0.068860388,0.059730542,0.059730542,0.059730542,0.059730542,0.064545251,0.059730542,0.101185953,0.059730542,0.059730542
"239",162036,"Viernheim, Germany",557,49.55862,8.56394,"Europe",0.066824099,0.066824099,0.066824099,0.06832967,0.066824099,0.066824099,0.066824099,0.066824099,0.066824099,0.066824099,0.066824099,0.066824099,0.066824099,0.066824099,0.066824099
"240",162997,"Wetzlar, Germany",557,50.56643,8.513532,"Europe",0.065969348,0.065969348,0.065969348,0.067421148,0.065969348,0.065969348,0.065969348,0.065969348,0.065969348,0.065969348,0.065969348,0.065969348,0.068872948,0.065969348,0.065969348
"241",164268,"Bussum, Netherlands",557,52.27033,5.165211,"Europe",0.065255194,0.065255194,0.065255194,0.065255194,0.065255194,0.065255194,0.065255194,0.065255194,0.065255194,0.065255194,0.086958153,0.065255194,0.088492131,0.065255194,0.065255194
"242",165415,"Nunspeet, Netherlands",557,52.37743,5.788511,"Europe",0.066578467,0.066578467,0.066578467,0.066578467,0.066578467,0.066578467,0.066578467,0.066578467,0.066578467,0.066578467,0.066578467,0.066578467,0.071899031,0.066578467,0.066578467
"243",166314,"Zaandam, Netherlands",557,52.44573,4.825437,"Europe",0.052619623,0.052619623,0.052619623,0.078459655,0.052619623,0.052619623,0.052619623,0.052619623,0.052619623,0.052619623,0.052619623,0.052619623,0.055994017,0.052619623,0.052619623
"244",166810,"Bad Duerkheim, Germany",557,49.45379,8.086325,"Europe",0.066616992,0.06782443,0.066616992,0.066616992,0.066616992,0.066616992,0.066616992,0.069031868,0.069031868,0.066616992,0.066616992,0.066616992,0.069031868,0.066616992,0.066616992
"245",166872,"Baden-Baden, Germany",557,48.75116,8.230616,"Europe",0.062443459,0.090943864,0.063022799,0.073836559,0.062443459,0.063988415,0.062443459,0.062443459,0.062443459,0.062443459,0.063778374,0.06360214,0.073450932,0.062443459,0.062443459
"246",167151,"Bad Salzuflen, Germany",557,52.0721,8.761214,"Europe",0.066610039,0.066610039,0.066610039,0.070343239,0.066610039,0.066610039,0.066610039,0.066610039,0.066610039,0.066610039,0.066610039,0.066610039,0.069098839,0.066610039,0.066610039
"247",167554,"Castrop-Rauxel, Germany",557,51.5704,7.314671,"Europe",0.066855145,0.066855145,0.066855145,0.066855145,0.066855145,0.066855145,0.066855145,0.066855145,0.066855145,0.066855145,0.066855145,0.066855145,0.068233125,0.066855145,0.066855145
"248",167864,"Ettlingen, Germany",557,48.92601,8.406245,"Europe",0.065931442,0.065931442,0.065931442,0.067249834,0.065931442,0.065931442,0.065931442,0.065931442,0.065931442,0.065931442,0.065931442,0.065931442,0.067249834,0.065931442,0.065931442
"249",168081,"Haan, Germany",557,51.20826,7.010632,"Europe",0.066769625,0.066769625,0.066769625,0.072472505,0.066769625,0.066769625,0.066769625,0.066769625,0.066769625,0.066769625,0.066769625,0.066769625,0.069621065,0.066769625,0.066769625
"250",168236,"Heidenheim an der Brenz, Germany",557,48.70977,10.18839,"Europe",0.065887985,0.065887985,0.065887985,0.075263279,0.065887985,0.065887985,0.065887985,0.065887985,0.065887985,0.071878133,0.071878133,0.067273794,0.068659603,0.065887985,0.065887985
"251",168484,"Karlsruhe, Germany",557,49.01182,8.411253,"Europe",0.063219212,0.063219212,0.06501923,0.069202626,0.063219212,0.087349442,0.087349442,0.063219212,0.063219212,0.087349442,0.087349442,0.063219212,0.069519274,0.063219212,0.087355364
"252",168546,"Kelsterbach, Germany",557,50.04915,8.518537,"Europe",0.05831637,0.05831637,0.05831637,0.075020041,0.05831637,0.05831637,0.05831637,0.070121228,0.05831637,0.05831637,0.05831637,0.05831637,0.065268889,0.05831637,0.05831637
"253",168639,"Constance, Germany",557,47.70446,9.159194,"Europe",0.059738461,0.060837121,0.059738461,0.071497874,0.059738461,0.083604239,0.059738461,0.061807719,0.059738461,0.059738461,0.083604239,0.059738461,0.06303444,0.059738461,0.059738461
"254",168794,"Landshut, Germany",557,48.54453,12.15986,"Europe",0.065689667,0.065689667,0.065689667,0.065689667,0.065689667,0.082550344,0.065689667,0.065689667,0.065689667,0.065689667,0.082550344,0.065689667,0.071140001,0.065689667,0.065689667
"255",169042,"Navan, Ireland",557,53.62726,-6.663124,"Europe",0.066643587,0.066643587,0.066643587,0.066643587,0.066643587,0.066643587,0.066643587,0.066643587,0.066643587,0.066643587,0.066643587,0.066643587,0.068086796,0.066643587,0.066643587
"256",169166,"Torquay, England, United Kingdom",557,50.47842,-3.518155,"Europe",0.062573796,0.062573796,0.06895063,0.087277895,0.062573796,0.064890105,0.062573796,0.065984173,0.062573796,0.062573796,0.062573796,0.062940567,0.07724462,0.062573796,0.062573796
"257",169352,"Walsall, England, United Kingdom",557,52.61361,-1.96242,"Europe",0.062411284,0.062411284,0.073224103,0.132403573,0.062411284,0.066511502,0.062411284,0.065409035,0.062411284,0.062411284,0.062411284,0.062411284,0.067147254,0.062411284,0.062411284
"258",170282,"York, England, United Kingdom",557,54.05331,-1.003395,"Europe",0.056981429,0.056981429,0.078902867,0.130927969,0.056981429,0.062558377,0.056981429,0.074736329,0.061169637,0.057550234,0.059461424,0.057286307,0.100434207,0.056981429,0.056981429
"259",170840,"Zug, Switzerland",557,47.15329,8.5179,"Europe",0.066029836,0.066029836,0.066029836,0.06738485,0.066029836,0.066029836,0.066029836,0.066029836,0.066029836,0.066029836,0.066029836,0.066029836,0.068739863,0.066029836,0.066029836
"260",171398,"Rambouillet, France",557,48.65314,1.826001,"Europe",0.06548756,0.06548756,0.06548756,0.066881288,0.06548756,0.06548756,0.06548756,0.06548756,0.06548756,0.06548756,0.06548756,0.06548756,0.068275016,0.06548756,0.06548756
"261",171553,"Rueil-Malmaison, France",557,48.86936,2.177571,"Europe",0.064710103,0.064710103,0.064710103,0.110853799,0.064710103,0.064710103,0.064710103,0.064710103,0.064710103,0.064710103,0.064710103,0.064710103,0.067211667,0.064710103,0.064710103
"262",171677,"Saint-Etienne-du-Rouvray, France",557,49.38165,1.090045,"Europe",0.065434054,0.065434054,0.065434054,0.111746418,0.065434054,0.065434054,0.065434054,0.065434054,0.065434054,0.065434054,0.065434054,0.065434054,0.06823753,0.065434054,0.065434054
"263",174281,"Chepstow, Wales, United Kingdom",557,51.66663,-2.716477,"Europe",0.058688705,0.058688705,0.058688705,0.089492255,0.058688705,0.058688705,0.058688705,0.061129836,0.058688705,0.058688705,0.058688705,0.058688705,0.061413872,0.058688705,0.058688705
"264",174870,"Marlborough, England, United Kingdom",557,51.39265,-1.686537,"Europe",0.065203282,0.065203282,0.065203282,0.071083064,0.065203282,0.072252352,0.065203282,0.065203282,0.065203282,0.065203282,0.065203282,0.065203282,0.067743932,0.065203282,0.065203282
"265",177226,"Leven, Scotland, United Kingdom",557,56.2148,-2.932882,"Europe",0.066741901,0.066741901,0.066741901,0.066741901,0.066741901,0.066741901,0.066741901,0.066741901,0.066741901,0.066741901,0.066741901,0.066741901,0.068238235,0.066741901,0.066741901
"266",177443,"Asolo, Italy",557,45.78898,11.90987,"Europe",0.066022247,0.066022247,0.066022247,0.067347804,0.066022247,0.066022247,0.066022247,0.066022247,0.066022247,0.066022247,0.066022247,0.066022247,0.06867336,0.066022247,0.066022247
"267",177505,"Monteriggioni, Italy",557,43.36734,11.22472,"Europe",0.065112516,0.065112516,0.065112516,0.071343402,0.065112516,0.065112516,0.065112516,0.065112905,0.065112516,0.065112516,0.065112516,0.066632157,0.075859478,0.065112516,0.065112516
"268",178745,"Pertuis, France",557,43.68776,5.52105,"Europe",0.066908971,0.066908971,0.066908971,0.069812571,0.066908971,0.066908971,0.066908971,0.066908971,0.066908971,0.066908971,0.066908971,0.066908971,0.068360771,0.066908971,0.066908971
"269",180419,"Rungis, France",557,48.74981,2.352521,"Europe",0.065275209,0.065275209,0.065275209,0.078005076,0.065275209,0.065872712,0.065275209,0.065275209,0.065275209,0.065275209,0.065275209,0.065275209,0.067883791,0.065275209,0.065275209
"270",180481,"Sisteron, France",557,44.20052,5.930851,"Europe",0.065522041,0.065522041,0.065522041,0.068594238,0.065522041,0.065522041,0.065522041,0.065522041,0.065522041,0.065522041,0.065522041,0.065522041,0.065522041,0.065522041,0.065522041
"271",180822,"Lech am Arlberg, Austria",557,47.20364,10.14321,"Europe",0.064995333,0.064995333,0.064995333,0.073520078,0.064995333,0.064995333,0.064995333,0.066416124,0.066416124,0.064995333,0.064995333,0.064995333,0.074940869,0.064995333,0.064995333
"272",181039,"Postojna, Slovenia",557,45.77762,14.21797,"Europe",0.066294975,0.066294975,0.066294975,0.07461326,0.066294975,0.066294975,0.066294975,0.066294975,0.066294975,0.066294975,0.066294975,0.066294975,0.087330528,0.066294975,0.066294975
"273",182341,"Beaugency, France",557,47.77863,1.638702,"Europe",0.066046338,0.066046338,0.066046338,0.067701488,0.066046338,0.066046338,0.066046338,0.066046338,0.066046338,0.066046338,0.066046338,0.066046338,0.068627316,0.066046338,0.066046338
"274",183922,"Hanalei, Hawaii, United States of America",557,22.16835,-159.5538,"North America",0.052965697,0.052965697,0.052965697,0.085162526,0.052965697,0.05761157,0.052965697,0.06131658,0.052979332,0.052965697,0.052965697,0.052965697,0.086391297,0.052965697,0.052965697
"275",184015,"Clifton, Texas, United States of America",557,31.8027,-97.50204,"North America",0.066973499,0.066973499,0.066973499,0.066973499,0.066973499,0.066973499,0.066973499,0.066973499,0.066973499,0.066973499,0.066973499,0.066973499,0.066973499,0.066973499,0.066973499
"276",184294,"Euless, Texas, United States of America",557,32.83784,-97.0953,"North America",0.063283959,0.063283959,0.063283959,0.123210434,0.063283959,0.063283959,0.063283959,0.063283959,0.063283959,0.063283959,0.063283959,0.068906128,0.063283959,0.068180754,0.063283959
"277",184387,"Alpharetta, Georgia, United States of America",557,34.07782,-84.26853,"North America",0.063376847,0.061040797,0.065285266,0.139945298,0.061040797,0.097278747,0.061040797,0.067481153,0.061040797,0.061040797,0.095490008,0.061040797,0.061044063,0.061040797,0.061040797
"278",184573,"Apex, North Carolina, United States of America",557,35.73669,-78.89914,"North America",0.064148615,0.064148615,0.076835248,0.068544444,0.064148615,0.064148615,0.064148615,0.064148615,0.064148615,0.064148615,0.064148615,0.064148615,0.065148215,0.064148615,0.064148615
"279",184821,"Alhambra, California, United States of America",557,34.08368,-118.1349,"North America",0.065711915,0.060613678,0.060613678,0.08696363,0.060613678,0.098821529,0.0661156,0.067649148,0.06698758,0.060613678,0.125008307,0.071213837,0.069940813,0.065711915,0.065711915
"280",185193,"Avon, Connecticut, United States of America",557,41.79118,-72.8515,"North America",0.084050336,0.079187594,0.059819816,0.122178868,0.054957074,0.081646489,0.054957074,0.054957074,0.071110754,0.059819816,0.072402611,0.05586782,0.071413723,0.054957074,0.054957074
"281",185503,"Alexandria, Virginia, United States of America",557,38.77512,-77.09776,"North America",0.057297291,0.057297291,0.058722485,0.152719937,0.057595143,0.063137013,0.057297291,0.062531956,0.058627746,0.057298806,0.06467405,0.058369389,0.081021464,0.057297291,0.057478248
"282",185751,"Roanoke, Alabama, United States of America",557,33.13647,-85.36655,"North America",0.067081786,0.067081786,0.067081786,0.067081786,0.067081786,0.067081786,0.067081786,0.067081786,0.067081786,0.067081786,0.067081786,0.067081786,0.067081786,0.067081786,0.067081786
"283",185844,"Union Gap, Washington, United States of America",557,46.55682,-120.4847,"North America",0.065380584,0.065380584,0.065380584,0.083476119,0.065380584,0.065380584,0.065380584,0.065380584,0.065380584,0.065380584,0.065380584,0.065380584,0.065380584,0.065380584,0.065380584
"284",186123,"Alliance, Ohio, United States of America",557,40.92064,-81.12838,"North America",0.064808101,0.069824407,0.068663743,0.106555437,0.060431359,0.073990359,0.068663743,0.065447666,0.069824407,0.060431359,0.089716751,0.068663743,0.097734227,0.060431359,0.064808101
"285",186247,"Hunt Valley, Maryland, United States of America",557,39.48763,-76.65751,"North America",0.06098348,0.06098348,0.062814906,0.109128941,0.06098348,0.063242716,0.06098348,0.064574316,0.06098348,0.06098348,0.070341537,0.06098348,0.072617369,0.06098348,0.065512434
"286",186278,"Arcata, California, United States of America",557,40.84788,-124.0455,"North America",0.060262838,0.060262838,0.060262838,0.14217099,0.060262838,0.060262838,0.060262838,0.060262838,0.060262838,0.060262838,0.081775843,0.060262838,0.084356821,0.060262838,0.060262838
"287",186340,"Barre, Vermont, United States of America",557,44.18678,-72.48295,"North America",0.061273539,0.061273539,0.065613065,0.082562353,0.061273539,0.061273539,0.061273539,0.061273539,0.061273539,0.061273539,0.061273539,0.061273539,0.110775105,0.061273539,0.061273539
"288",186991,"Ascona, Switzerland",557,46.1542,8.770367,"Europe",0.065068527,0.065068527,0.086311096,0.070939264,0.085777392,0.085777392,0.065068527,0.065068527,0.065068527,0.065068527,0.065068527,0.066669637,0.070939264,0.06560223,0.065068527
"289",187270,"Ada, Oklahoma, United States of America",557,34.80905,-96.7054,"North America",0.07491291,0.077027986,0.072702801,0.085055246,0.063356233,0.072702801,0.070587725,0.063356233,0.063356233,0.063356233,0.070587725,0.063356233,0.076403184,0.063356233,0.063356233
"290",187425,"Reynoldsburg, Ohio, United States of America",557,39.95684,-82.78187,"North America",0.06359865,0.068306557,0.068306557,0.093746799,0.06359865,0.071573375,0.06359865,0.06359865,0.06359865,0.06359865,0.069723778,0.06359865,0.079498081,0.06359865,0.06359865
"291",187642,"Durham, North Carolina, United States of America",557,35.99838,-78.88832,"North America",0.057225657,0.057225657,0.068690773,0.111921169,0.057225657,0.078841308,0.057225657,0.06073351,0.05757402,0.057225657,0.09407005,0.057225657,0.092461349,0.057225657,0.057225657
"292",188882,"Johnson City, Tennessee, United States of America",557,36.32822,-82.37295,"North America",0.061449303,0.061449303,0.061449303,0.095171257,0.061449303,0.085906594,0.061449303,0.063259714,0.061724685,0.061449303,0.062947679,0.061449303,0.065622376,0.061449303,0.061449303
"293",189409,"Richardson, Texas, United States of America",557,32.97092,-96.70976,"North America",0.060583274,0.060583274,0.080218085,0.147074022,0.060583274,0.082025851,0.060583274,0.062676648,0.060583417,0.060583274,0.079738589,0.060583274,0.066326946,0.060583274,0.060583274
"294",189657,"Richfield, Minnesota, United States of America",557,44.87646,-93.28311,"North America",0.078998262,0.060942457,0.076586669,0.113851816,0.060942457,0.060942457,0.060942457,0.069333656,0.060942457,0.060942457,0.060942457,0.080961548,0.07307632,0.065753993,0.06631236
"295",190091,"Angers, France",557,47.47172,-0.558217,"Europe",0.065002614,0.065002614,0.089627273,0.070482856,0.065002614,0.065002614,0.065002614,0.065002614,0.065002614,0.065002614,0.065002614,0.065002614,0.069377545,0.065002614,0.065002614
"296",191052,"Asbury Park, New Jersey, United States of America",557,40.24655,-74.05121,"North America",0.048764093,0.053216651,0.050253781,0.116533115,0.048764093,0.124308144,0.078142113,0.053989677,0.049608017,0.048764093,0.121085691,0.049739893,0.065967106,0.048764093,0.053216651
"297",191207,"Rock Island, Illinois, United States of America",557,41.49048,-90.56728,"North America",0.062727049,0.095576358,0.062734017,0.062727049,0.062727049,0.070575984,0.079700879,0.064187542,0.064187542,0.062727049,0.087549814,0.062727049,0.064187542,0.062727049,0.062727049
"298",191579,"Richmond Hill, Ontario, Canada",557,43.90246,-79.42629,"North America",0.06115007,0.06115007,0.077150267,0.131766758,0.06115007,0.076704224,0.06115007,0.0649366,0.06115007,0.06115007,0.090143929,0.067882789,0.081493979,0.066226885,0.063096988
"299",191672,"Seaside, Oregon, United States of America",557,45.89333,-123.6594,"North America",0.064692676,0.054977395,0.057429811,0.152428318,0.054977395,0.059508256,0.054977395,0.064064529,0.057604957,0.054977395,0.05712938,0.054977395,0.060750747,0.054977395,0.054977395
"300",192106,"Ahoskie, North Carolina, United States of America",557,36.29092,-76.98672,"North America",0.066285932,0.066285932,0.066285932,0.124996214,0.066285932,0.080846688,0.066285932,0.067829618,0.067829618,0.066285932,0.066285932,0.066285932,0.066285932,0.066285932,0.066285932
"301",192850,"Cameron Park, California, United States of America",557,38.66257,-120.9769,"North America",0.063102868,0.11106514,0.063102868,0.090240363,0.063102868,0.078215008,0.063102868,0.063102868,0.063102868,0.063102868,0.078155757,0.063102868,0.063102868,0.063102868,0.063102868
"302",192912,"Dyersburg, Tennessee, United States of America",557,36.03378,-89.3864,"North America",0.061968772,0.061968772,0.093948939,0.116620216,0.061968772,0.093948939,0.070690636,0.061968772,0.061968772,0.061968772,0.070690636,0.061968772,0.074726734,0.085227075,0.085227075
"303",193005,"Sulphur, Louisiana, United States of America",557,30.174,-93.43713,"North America",0.06529347,0.104075825,0.06529347,0.086609583,0.06529347,0.067674371,0.06529347,0.06529347,0.06529347,0.06529347,0.066703108,0.06529347,0.06529347,0.06529347,0.06529347
"304",193098,"Jennings, Louisiana, United States of America",557,30.22723,-92.65879,"North America",0.062041621,0.084680466,0.062041621,0.077840173,0.070816653,0.070816653,0.062041621,0.062041621,0.070816653,0.066250345,0.092976235,0.062041621,0.093984313,0.062041621,0.070816653
"305",193811,"Beachwood, Ohio, United States of America",557,41.46986,-81.51473,"North America",0.059325595,0.063982991,0.072624865,0.125750954,0.059325595,0.067714029,0.059325595,0.068921464,0.067158132,0.059325595,0.070658592,0.063758685,0.085437999,0.063758685,0.063758685
"306",193966,"Boynton Beach, Florida, United States of America",557,26.5241,-80.1354,"North America",0.057166981,0.065988046,0.066837447,0.134799057,0.057166981,0.065931475,0.057166981,0.057166981,0.057166981,0.057166981,0.079039912,0.070398578,0.081423599,0.065988046,0.065988046
"307",194245,"Artesia, California, United States of America",557,33.86887,-118.0812,"North America",0.071250676,0.06190017,0.06190017,0.111806789,0.06190017,0.066569842,0.06190017,0.069222166,0.069222166,0.06190017,0.06190017,0.075007727,0.075256566,0.06190017,0.06687136
"308",194431,"Wall, South Dakota, United States of America",557,44.1263,-102.1931,"North America",0.062156169,0.067550538,0.062156169,0.103630177,0.062156169,0.062156169,0.062156169,0.063098321,0.063098321,0.062156169,0.062156169,0.062156169,0.084796156,0.062156169,0.062156169
"309",194679,"Buffalo Grove, Illinois, United States of America",557,42.17241,-87.95922,"North America",0.056442395,0.056442395,0.070526487,0.186747773,0.063027755,0.073173117,0.060913454,0.062574269,0.063027755,0.056442395,0.066587757,0.056442395,0.100809269,0.062116698,0.062116698
"310",194803,"Bal Harbour, Florida, United States of America",557,25.89352,-80.1251,"North America",0.059713365,0.059713365,0.068752531,0.092218213,0.059713365,0.078900662,0.059713365,0.069169218,0.077002341,0.059713365,0.063779363,0.059713365,0.094138505,0.059713365,0.064106603
"311",195144,"Brandon, Florida, United States of America",774,27.92538,-82.29599,"North America",0.070556707,0.071303456,0.066804087,0.121923781,0.061480374,0.069211841,0.061480374,0.076950033,0.075621541,0.061480374,0.079858128,0.070556707,0.08601367,0.065842985,0.065842985
"312",195330,"Battle Mountain, Nevada, United States of America",557,40.63927,-116.936,"North America",0.062192333,0.081504107,0.080466548,0.077145616,0.062192333,0.075181323,0.062192333,0.075181323,0.070970902,0.062192333,0.079243662,0.070970902,0.091888069,0.062192333,0.066254673
"313",195764,"Altavista, Virginia, United States of America",557,37.14224,-79.23463,"North America",0.066046848,0.066046848,0.066046848,0.076162894,0.066046848,0.066046848,0.066046848,0.066046848,0.066046848,0.066046848,0.066046848,0.066046848,0.066046848,0.066046848,0.066046848
"314",195950,"Boca Raton, Florida, United States of America",557,26.37634,-80.15642,"North America",0.054541685,0.054884837,0.066886872,0.137652255,0.060542597,0.085399525,0.060542597,0.060754186,0.054898064,0.054541685,0.090892312,0.054541685,0.077245366,0.060542597,0.054541685
"315",196849,"Borger, Texas, United States of America",557,35.72013,-101.2459,"North America",0.066665505,0.066665505,0.066665505,0.068143702,0.066665505,0.066665505,0.066665505,0.066665505,0.066665505,0.066665505,0.066665505,0.066665505,0.066665505,0.066665505,0.066665505
"316",196880,"Bainbridge, Georgia, United States of America",557,30.87553,-84.61343,"North America",0.066022093,0.066022093,0.066022093,0.072715703,0.066022093,0.066022093,0.066022093,0.066022093,0.066022093,0.066022093,0.066022093,0.066022093,0.066022093,0.066022093,0.066022093
"317",197593,"Amite, Louisiana, United States of America",557,30.72189,-90.5127,"North America",0.06685308,0.06685308,0.06685308,0.078859862,0.06685308,0.06685308,0.06685308,0.06685308,0.06685308,0.06685308,0.06685308,0.06685308,0.06685308,0.06685308,0.06685308
"318",197624,"Vernon Hills, Illinois, United States of America",557,42.23375,-87.96045,"North America",0.061063771,0.061063771,0.070625356,0.096530445,0.065078693,0.079480553,0.069416744,0.061063771,0.061063771,0.061063771,0.079480553,0.061063771,0.092860556,0.066287305,0.066287305
"319",198864,"Barahona, Dominican Republic",557,18.14808,-71.12798,"South America",0.05967417,0.05967417,0.05967417,0.060649971,0.05967417,0.063901133,0.05967417,0.063901133,0.063901133,0.05967417,0.05967417,0.060649971,0.110558239,0.05967417,0.05967417
"320",199112,"Bairnsdale, Victoria, Australia",557,-37.83345,147.6226,"Australia",0.06502625,0.06502625,0.06502625,0.098770783,0.06502625,0.06502625,0.06502625,0.06502625,0.06502625,0.06502625,0.06502625,0.06502625,0.069856002,0.06502625,0.06502625
"321",199918,"Beverly, Massachusetts, United States of America",557,42.56709,-70.86149,"North America",0.074575752,0.057459698,0.062612144,0.113470814,0.057459698,0.072422138,0.057459698,0.057459698,0.057459698,0.057459698,0.065274883,0.057459698,0.083454798,0.057459698,0.057459698
"322",200259,"Blaine, Washington, United States of America",557,48.94085,-122.7575,"North America",0.061517403,0.079320889,0.061568439,0.080502034,0.061674581,0.062533901,0.061517403,0.073117975,0.061517403,0.061517403,0.061638708,0.061517403,0.066652191,0.061517403,0.061517403
"323",200383,"Runnemede, New Jersey, United States of America",557,39.8516,-75.07373,"North America",0.069990111,0.065467802,0.065467802,0.091736082,0.065467802,0.065467802,0.065467802,0.065467802,0.065467802,0.065467802,0.065467802,0.065467802,0.065467802,0.065467802,0.065467802
"324",200414,"Arden Hills, Minnesota, United States of America",557,45.06909,-93.16869,"North America",0.065170943,0.065170943,0.065170943,0.065170943,0.065170943,0.065170943,0.065170943,0.065170943,0.065170943,0.065170943,0.065170943,0.065170943,0.066744507,0.065170943,0.065170943
"325",200693,"Buffalo, Wyoming, United States of America",557,44.34811,-106.6991,"North America",0.064959512,0.064959512,0.064959512,0.087420379,0.064959512,0.064959512,0.064959512,0.064977064,0.064959512,0.064959512,0.064959512,0.064959512,0.066137785,0.064959512,0.064959512
"326",201437,"Cupertino, California, United States of America",557,37.31739,-122.0469,"North America",0.060905553,0.060905553,0.099963974,0.093436267,0.060905553,0.075834563,0.060905553,0.066193105,0.060905553,0.060905553,0.086797481,0.068158258,0.079579065,0.060905553,0.060905553
"327",201623,"Carol Stream, Illinois, United States of America",557,41.91017,-88.12588,"North America",0.064006012,0.063694791,0.07342665,0.140544175,0.059827823,0.074819379,0.064217421,0.059827823,0.059827823,0.059827823,0.091532135,0.064006012,0.093508101,0.069037053,0.069037053
"328",201809,"Chanhassen, Minnesota, United States of America",557,44.85732,-93.55159,"North America",0.062135555,0.062135555,0.091652085,0.103171547,0.080817223,0.08100603,0.062135555,0.065009087,0.062135555,0.062135555,0.129079656,0.086440965,0.06305139,0.062135555,0.086440965
"329",201995,"Hawthorn, Victoria, Australia",557,-37.82493,145.0319,"Australia",0.06579719,0.06579719,0.06724899,0.06724899,0.06579719,0.073685193,0.06579719,0.06579719,0.06579719,0.06579719,0.06579719,0.06579719,0.06870079,0.06579719,0.06579719
"330",202212,"Cairo, Georgia, United States of America",557,30.85784,-84.21776,"North America",0.067040642,0.067040642,0.067040642,0.067040642,0.067040642,0.067040642,0.067040642,0.067040642,0.067040642,0.067040642,0.067040642,0.067040642,0.067040642,0.067040642,0.067040642
"331",202522,"Seal Beach, California, United States of America",557,33.75314,-118.0731,"North America",0.057167082,0.066285774,0.061613927,0.094333473,0.062855001,0.062855001,0.057167082,0.060663219,0.057167082,0.057167082,0.072964755,0.072398382,0.076192781,0.057167082,0.057167082
"332",202553,"Cockeysville, Maryland, United States of America",557,39.48379,-76.63445,"North America",0.062045845,0.062045845,0.068239187,0.095670701,0.062045845,0.063651345,0.062045845,0.064597631,0.062045845,0.062045845,0.065477591,0.066927457,0.088892108,0.062045845,0.062045845
"333",202615,"Concord, Massachusetts, United States of America",557,42.46173,-71.36558,"North America",0.05802875,0.05802875,0.071044948,0.127822215,0.05802875,0.071602184,0.05802875,0.05802875,0.05802875,0.05802875,0.0731376,0.05802875,0.105787163,0.062504001,0.05802875
"334",203421,"Cadillac, Michigan, United States of America",557,44.24888,-85.52235,"North America",0.059011307,0.060798594,0.060798594,0.099016507,0.077052742,0.087101561,0.079026311,0.0597633,0.0597633,0.059011307,0.082829859,0.059011307,0.078886192,0.059011307,0.059011307
"335",203452,"Clayton, New Mexico, United States of America",557,36.44453,-103.171,"North America",0.067463056,0.069377414,0.064975254,0.094721828,0.060917825,0.071520486,0.060917825,0.060917825,0.064975254,0.067463056,0.060917825,0.060917825,0.091866989,0.060917825,0.067463056
"336",204816,"Salem, New Hampshire, United States of America",557,42.80185,-71.22688,"North America",0.063174496,0.063174496,0.063449142,0.115039307,0.063174496,0.063174496,0.063174496,0.063174496,0.063174496,0.063174496,0.063174496,0.063594324,0.065021318,0.063174496,0.063174496
"337",204971,"Cambridge, Maryland, United States of America",557,38.50895,-76.10942,"North America",0.062943914,0.062943914,0.062943914,0.097643722,0.062943914,0.062943914,0.062943914,0.065419176,0.062943914,0.062943914,0.062943914,0.062943914,0.113045326,0.062943914,0.062943914
"338",205188,"Chandler, Arizona, United States of America",557,33.26376,-111.8798,"North America",0.057832633,0.149784273,0.081925448,0.117351172,0.074283717,0.083850001,0.080326456,0.066039971,0.060475089,0.057832633,0.084532406,0.062492952,0.072927615,0.057832633,0.057832633
"339",205560,"Concordville, Glen Mills, Pennsylvania, United States of America",557,39.88451,-75.52946,"North America",0.063978396,0.063978396,0.064660833,0.098905374,0.063978396,0.063978396,0.063978396,0.072934579,0.063978396,0.063978396,0.063978396,0.063978396,0.063978396,0.063978396,0.063978396
"340",205839,"San Clemente, California, United States of America",557,33.43977,-117.6046,"North America",0.058410848,0.058410848,0.059918638,0.100493816,0.058410848,0.058961119,0.058410848,0.058410848,0.085162012,0.058410848,0.058410848,0.062959216,0.069915783,0.058410848,0.058410848
"341",206397,"Castroville, Texas, United States of America",557,29.36922,-98.89088,"North America",0.060203982,0.060203982,0.060203982,0.124516036,0.060203982,0.060203982,0.060203982,0.060203982,0.060203982,0.060203982,0.060203982,0.060203982,0.07131856,0.060203982,0.060203982
"342",206583,"Compton, California, United States of America",557,33.88794,-118.2251,"North America",0.061772136,0.40677538,0.057258917,0.130150128,0.057258917,0.057258917,0.057258917,0.062382108,0.057258917,0.057258917,0.06313075,0.061772136,0.097779524,0.061772136,0.061772136
"343",206676,"Sandy, Utah, United States of America",557,40.57285,-111.843,"North America",0.059262978,0.058514711,0.068636207,0.12709157,0.058514711,0.067514917,0.058514711,0.059191004,0.059191004,0.058514711,0.068422909,0.058514711,0.082122644,0.058514711,0.058514711
"344",207606,"Sauk Centre, Minnesota, United States of America",557,45.71896,-94.98953,"North America",0.066907229,0.066907229,0.066907229,0.069793648,0.066907229,0.066907229,0.066907229,0.066907229,0.066907229,0.066907229,0.066907229,0.066907229,0.066907229,0.066907229,0.066907229
"345",207637,"Sauk City, Wisconsin, United States of America",557,43.2591,-89.79315,"North America",0.066239141,0.066239141,0.066239141,0.091542999,0.066239141,0.066239141,0.066239141,0.066239141,0.066239141,0.066239141,0.066239141,0.066239141,0.070652101,0.066239141,0.066239141
"346",207947,"Coventry, England, United Kingdom",557,52.42225,-1.497423,"Europe",0.060681767,0.060681767,0.061928122,0.096346422,0.060681767,0.078982388,0.060681767,0.06832712,0.060681767,0.060681767,0.073429146,0.060681767,0.067981319,0.060681767,0.060681767
"347",208133,"Schiller Park, Illinois, United States of America",557,41.95794,-87.86935,"North America",0.05668114,0.054162176,0.065809727,0.127610562,0.070901134,0.098988454,0.060729494,0.063994895,0.067411305,0.052858978,0.081960369,0.052858978,0.071542211,0.058488587,0.062310748
"348",208536,"Kingsland, Georgia, United States of America",557,30.81319,-81.72533,"North America",0.082745943,0.060099538,0.06576114,0.100947239,0.060099538,0.077084342,0.060099538,0.060099538,0.060099538,0.060099538,0.077084342,0.066368304,0.096190986,0.060099538,0.077084342
"349",208722,"Blasdell, New York, United States of America",557,42.78923,-78.82969,"North America",0.066549247,0.066549247,0.066549247,0.066549247,0.066549247,0.066549247,0.066549247,0.066556582,0.066556582,0.066549247,0.066549247,0.066549247,0.066549247,0.066549247,0.066549247
"350",209032,"South Burlington, Vermont, United States of America",557,44.44792,-73.17109,"North America",0.054633936,0.054633936,0.059435938,0.098965045,0.054633936,0.072469057,0.054633936,0.060086925,0.055311386,0.054633936,0.078189916,0.054633936,0.085691187,0.054633936,0.054633936
"351",209931,"Boardman, Ohio, United States of America",557,41.02133,-80.67103,"North America",0.065849802,0.065849802,0.065849802,0.078978486,0.065849802,0.065849802,0.065849802,0.065849802,0.065849802,0.065849802,0.065849802,0.065849802,0.065849802,0.065849802,0.065849802
"352",210334,"Bonham, Texas, United States of America",557,33.57352,-96.17656,"North America",0.066889959,0.066889959,0.066889959,0.066889959,0.066889959,0.066889959,0.066889959,0.066889959,0.066889959,0.066889959,0.066889959,0.066889959,0.068453436,0.066889959,0.066889959
"353",210582,"Cathedral City, California, United States of America",557,33.81263,-116.4669,"North America",0.053781851,0.056476391,0.057227874,0.18310011,0.053781851,0.066405646,0.053781851,0.087191768,0.053781851,0.053781851,0.064140009,0.057005232,0.058572042,0.053781851,0.054154527
"354",210985,"Spanish Fork, Utah, United States of America",557,40.11001,-111.6869,"North America",0.059993887,0.059993887,0.087591197,0.086760475,0.059993887,0.06616097,0.06616097,0.059993887,0.059993887,0.059993887,0.084681472,0.059993887,0.104712981,0.06616097,0.06616097
"355",212194,"Bellflower, California, United States of America",557,33.8882,-118.1278,"North America",0.06844529,0.063686227,0.068996255,0.073755317,0.063686227,0.063686227,0.063686227,0.073204352,0.073204352,0.063686227,0.063686227,0.078320446,0.089795499,0.073755317,0.06844529
"356",213000,"Benton, Kentucky, United States of America",557,36.86388,-88.34666,"North America",0.066444866,0.067932076,0.066444866,0.10852127,0.066444866,0.066444866,0.066444866,0.066444866,0.066444866,0.066444866,0.066444866,0.066444866,0.067932076,0.066444866,0.066444866
"357",213186,"The Dalles, Oregon, United States of America",557,45.5509,-121.2014,"North America",0.060905122,0.060905122,0.060905122,0.083387308,0.060905122,0.068331408,0.060905122,0.070049113,0.060905122,0.060905122,0.061098573,0.060905122,0.080893464,0.060905122,0.060905122
"358",213434,"Siesta Key, Florida, United States of America",557,27.25559,-82.54183,"North America",0.053547407,0.050036497,0.057598786,0.138626809,0.050036497,0.088951107,0.050036497,0.063172767,0.076695946,0.050036497,0.054441238,0.050533268,0.066159515,0.050036497,0.050036497
"359",213961,"Bethany, Oklahoma, United States of America",557,35.51398,-97.64481,"North America",0.066197566,0.066197566,0.066197566,0.098946532,0.066197566,0.066197566,0.066197566,0.066197566,0.066197566,0.066197566,0.066197566,0.066197566,0.066197566,0.066197566,0.066197566
"360",214643,"Smithfield, North Carolina, United States of America",557,35.49154,-78.34975,"North America",0.061914669,0.061914669,0.061914669,0.108569984,0.061914669,0.061914669,0.061914669,0.061914669,0.061914669,0.071208517,0.071981292,0.061914669,0.089224053,0.061914669,0.061914669
"361",214984,"Smyrna, Georgia, United States of America",557,33.86687,-84.51571,"North America",0.084003052,0.06083919,0.065221334,0.122510467,0.06083919,0.065757798,0.06083919,0.064292355,0.06083919,0.06083919,0.062231226,0.062222603,0.074382945,0.062271081,0.074187329
"362",215232,"Somers Point, New Jersey, United States of America",557,39.31799,-74.60252,"North America",0.06339626,0.079250692,0.065407686,0.123552947,0.059142748,0.085485988,0.059142748,0.059241779,0.059142748,0.059142748,0.063026422,0.059142748,0.089254337,0.059142748,0.073505
"363",215263,"Somerset, Massachusetts, United States of America",557,41.74812,-71.15576,"North America",0.065960104,0.065960104,0.065960104,0.071685948,0.065960104,0.065960104,0.065960104,0.065960104,0.065960104,0.065960104,0.065960104,0.065960104,0.065960104,0.065960104,0.065960104
"364",215852,"Clarion, Pennsylvania, United States of America",557,41.20227,-79.35746,"North America",0.060974345,0.060974345,0.060974345,0.095153896,0.060974345,0.060974345,0.060974345,0.060974345,0.060974345,0.060974345,0.061015113,0.065268795,0.103562394,0.065268795,0.069412209
"365",215976,"Burnet, Texas, United States of America",557,30.84944,-98.26849,"North America",0.064639562,0.064639562,0.064639562,0.101534313,0.064639562,0.064639562,0.064639562,0.064639562,0.064639562,0.064639562,0.064639562,0.064639562,0.070279681,0.064639562,0.064639562
"366",216348,"Englewood, New Jersey, United States of America",557,40.89187,-73.97392,"North America",0.068665227,0.059610466,0.059610466,0.150371533,0.059610466,0.076615777,0.059610466,0.059610466,0.059610466,0.059610466,0.07852809,0.069015504,0.07605378,0.059610466,0.059610466
"367",217402,"Camp Hill, Pennsylvania, United States of America",557,40.23445,-76.92978,"North America",0.06335125,0.059394146,0.076496465,0.102400258,0.059394146,0.059394146,0.059394146,0.082263984,0.059394146,0.059394146,0.059394146,0.064356982,0.087883116,0.06335125,0.06335125
"368",217805,"Brea, California, United States of America",557,33.92785,-117.8466,"North America",0.061459913,0.061459913,0.061459913,0.103273103,0.080870962,0.087631339,0.061459913,0.061459913,0.061459913,0.061459913,0.09901771,0.089175163,0.082188131,0.061459913,0.061459913
"369",218766,"Vail, Colorado, United States of America",557,39.63329,-106.3613,"North America",0.058454012,0.05872992,0.059591232,0.114542635,0.058454012,0.062174492,0.058454012,0.066821373,0.059300331,0.058454012,0.059856807,0.058454012,0.078312079,0.058454012,0.058454012
"370",219293,"St. Helens, Oregon, United States of America",557,45.87216,-122.8892,"North America",0.061065451,0.061065451,0.061065451,0.083518928,0.061065451,0.065993723,0.061065451,0.061065451,0.061065451,0.061065451,0.085622497,0.061065451,0.099270624,0.061065451,0.061065451
"371",219417,"Elkins, West Virginia, United States of America",557,38.94313,-79.82468,"North America",0.063138018,0.063138018,0.067834554,0.102204633,0.063138018,0.08213168,0.063138018,0.068110001,0.063138018,0.063138018,0.075719511,0.063138018,0.074304098,0.063138018,0.068110001
"372",219758,"Brooklawn, New Jersey, United States of America",557,39.87896,-75.12115,"North America",0.065879889,0.065879889,0.065879889,0.085024399,0.065879889,0.079912677,0.065879889,0.065879889,0.065879889,0.065879889,0.079835889,0.065879889,0.065879889,0.065879889,0.065879889
"373",220006,"Brooklyn Center, Minnesota, United States of America",557,45.06845,-93.31616,"North America",0.063510067,0.063510067,0.063510067,0.140017448,0.063510067,0.075122773,0.063510067,0.064427952,0.063521629,0.063510067,0.072635351,0.063510067,0.063510067,0.063510067,0.063510067
"374",220533,"Kerrville, Texas, United States of America",557,30.01967,-99.16576,"North America",0.059007907,0.059007907,0.064512571,0.094795029,0.059007907,0.088234055,0.059007907,0.062586454,0.05973328,0.059007907,0.105582752,0.059007907,0.107215515,0.059007907,0.059007907
"375",220719,"Brush, Colorado, United States of America",557,40.26353,-103.6204,"North America",0.066946807,0.066946807,0.066946807,0.069175501,0.066946807,0.066946807,0.066946807,0.066946807,0.066946807,0.066946807,0.066946807,0.066946807,0.066946807,0.066946807,0.066946807
"376",220874,"Espanola, New Mexico, United States of America",557,35.9852,-106.0753,"North America",0.06513959,0.07031305,0.06513959,0.081640021,0.06513959,0.06513959,0.06513959,0.06513959,0.06513959,0.06728577,0.06513959,0.06513959,0.070449399,0.06513959,0.06513959
"377",221556,"Newton, Kansas, United States of America",557,38.05249,-97.34319,"North America",0.065484521,0.067805013,0.067805013,0.113091081,0.061245494,0.08244063,0.061245494,0.061245494,0.061245494,0.061245494,0.065484521,0.065484521,0.093066435,0.061245494,0.08244063
"378",221649,"Burlingame, California, United States of America",557,37.56837,-122.3659,"North America",0.054680194,0.054680194,0.055464782,0.151060553,0.055581632,0.061685445,0.054680194,0.07818606,0.055206114,0.054680194,0.062751513,0.054680194,0.065907159,0.054680194,0.055180364
"379",221742,"Burlington, Ontario, Canada",557,43.35128,-79.81895,"North America",0.058687533,0.058687533,0.064769328,0.130223477,0.058687533,0.09033925,0.064769328,0.05888144,0.058719513,0.058687533,0.086100172,0.059422665,0.092368201,0.058687533,0.063248879
"380",221773,"Fenton, Missouri, United States of America",557,38.50109,-90.46148,"North America",0.06273813,0.06273813,0.06273813,0.090106716,0.06273813,0.076856383,0.072279584,0.06273813,0.072279584,0.06273813,0.076855903,0.063664313,0.091034947,0.067153499,0.072859393
